<kml xmlns="http://www.opengis.net/kml/2.2">
  <Document id="VT-3000-footers">
    <name>VT-3000-footers</name>
    <description>pinmap for VT-3000-footers</description>
    <visibility>1</visibility>
    <Folder id="VT-3000-footers">
      <name>VT-3000-footers</name>
      <description>kml map of list points for VT-3000-footers</description>
      <visibility>1</visibility>
      <Placemark id="PICO PK">
        <name>PICO PK</name>
        <description>Latitude: 43.63944444
Longitude: -72.83694444
Name: PICO PK
State: VT
Elevation: 3957
</description>
        <visibility>1</visibility>
        <Point>
          <coordinates>-72.836944,43.639444</coordinates>
        </Point>
      </Placemark>
      <Placemark id="STRATTON MTN">
        <name>STRATTON MTN</name>
        <description>Latitude: 43.08611111
Longitude: -72.92555556
Name: STRATTON MTN
State: VT
Elevation: 3940
</description>
        <visibility>1</visibility>
        <Point>
          <coordinates>-72.925556,43.086111</coordinates>
        </Point>
      </Placemark>
      <Placemark id="JAY PK">
        <name>JAY PK</name>
        <description>Latitude: 44.92444444
Longitude: -72.52638889
Name: JAY PK
State: VT
Elevation: 3858
</description>
        <visibility>1</visibility>
        <Point>
          <coordinates>-72.526389,44.924444</coordinates>
        </Point>
      </Placemark>
      <Placemark id="EQUINOX MTN">
        <name>EQUINOX MTN</name>
        <description>Latitude: 43.16583333
Longitude: -73.11805556
Name: EQUINOX MTN
State: VT
Elevation: 3850
</description>
        <visibility>1</visibility>
        <Point>
          <coordinates>-73.118056,43.165833</coordinates>
        </Point>
      </Placemark>
      <Placemark id="MENDON PK">
        <name>MENDON PK</name>
        <description>Latitude: 43.595
Longitude: -72.84666667
Name: MENDON PK
State: VT
Elevation: 3840
</description>
        <visibility>1</visibility>
        <Point>
          <coordinates>-72.846667,43.595000</coordinates>
        </Point>
      </Placemark>
      <Placemark id="BREAD LOAF MTN">
        <name>BREAD LOAF MTN</name>
        <description>Latitude: 44.00194444
Longitude: -72.94166667
Name: BREAD LOAF MTN
State: VT
Elevation: 3835
</description>
        <visibility>1</visibility>
        <Point>
          <coordinates>-72.941667,44.001944</coordinates>
        </Point>
      </Placemark>
      <Placemark id="MT WILSON">
        <name>MT WILSON</name>
        <description>Latitude: 44.00472222
Longitude: -72.92611111
Name: MT WILSON
State: VT
Elevation: 3790
</description>
        <visibility>1</visibility>
        <Point>
          <coordinates>-72.926111,44.004722</coordinates>
        </Point>
      </Placemark>
      <Placemark id="BIG JAY">
        <name>BIG JAY</name>
        <description>Latitude: 44.915
Longitude: -72.54111111
Name: BIG JAY
State: VT
Elevation: 3786
</description>
        <visibility>1</visibility>
        <Point>
          <coordinates>-72.541111,44.915000</coordinates>
        </Point>
      </Placemark>
      <Placemark id="DORSET PK">
        <name>DORSET PK</name>
        <description>Latitude: 43.30916667
Longitude: -73.02861111
Name: DORSET PK
State: VT
Elevation: 3770
</description>
        <visibility>1</visibility>
        <Point>
          <coordinates>-73.028611,43.309167</coordinates>
        </Point>
      </Placemark>
      <Placemark id="GLASTENBURY MTN">
        <name>GLASTENBURY MTN</name>
        <description>Latitude: 42.97777778
Longitude: -73.07222222
Name: GLASTENBURY MTN
State: VT
Elevation: 3748
</description>
        <visibility>1</visibility>
        <Point>
          <coordinates>-73.072222,42.977778</coordinates>
        </Point>
      </Placemark>
      <Placemark id="SHREWSBURY PK">
        <name>SHREWSBURY PK</name>
        <description>Latitude: 43.57555556
Longitude: -72.80638889
Name: SHREWSBURY PK
State: VT
Elevation: 3730
</description>
        <visibility>1</visibility>
        <Point>
          <coordinates>-72.806389,43.575556</coordinates>
        </Point>
      </Placemark>
      <Placemark id="STERLING MTN (WHITE FACE MTN)">
        <name>STERLING MTN (WHITE FACE MTN)</name>
        <description>Latitude: 44.58222222
Longitude: -72.74027778
Name: STERLING MTN (WHITE FACE MTN)
State: VT
Elevation: 3714
</description>
        <visibility>1</visibility>
        <Point>
          <coordinates>-72.740278,44.582222</coordinates>
        </Point>
      </Placemark>
      <Placemark id="BOLTON MTN">
        <name>BOLTON MTN</name>
        <description>Latitude: 44.44916667
Longitude: -72.84027778
Name: BOLTON MTN
State: VT
Elevation: 3690
</description>
        <visibility>1</visibility>
        <Point>
          <coordinates>-72.840278,44.449167</coordinates>
        </Point>
      </Placemark>
      <Placemark id="(MT ETHAN ALLEN)">
        <name>(MT ETHAN ALLEN)</name>
        <description>Latitude: 44.29361111
Longitude: -72.88472222
Name: (MT ETHAN ALLEN)
State: VT
Elevation: 3688
</description>
        <visibility>1</visibility>
        <Point>
          <coordinates>-72.884722,44.293611</coordinates>
        </Point>
      </Placemark>
      <Placemark id="GENERAL STARK MTN">
        <name>GENERAL STARK MTN</name>
        <description>Latitude: 44.18416667
Longitude: -72.92916667
Name: GENERAL STARK MTN
State: VT
Elevation: 3662
</description>
        <visibility>1</visibility>
        <Point>
          <coordinates>-72.929167,44.184167</coordinates>
        </Point>
      </Placemark>
      <Placemark id="MADONNA PK">
        <name>MADONNA PK</name>
        <description>Latitude: 44.56138889
Longitude: -72.75888889
Name: MADONNA PK
State: VT
Elevation: 3650
</description>
        <visibility>1</visibility>
        <Point>
          <coordinates>-72.758889,44.561389</coordinates>
        </Point>
      </Placemark>
      <Placemark id="WORCESTER MTNS (S PK)">
        <name>WORCESTER MTNS (S PK)</name>
        <description>Latitude: 44.41833333
Longitude: -72.63888889
Name: WORCESTER MTNS (S PK)
State: VT
Elevation: 3642
</description>
        <visibility>1</visibility>
        <Point>
          <coordinates>-72.638889,44.418333</coordinates>
        </Point>
      </Placemark>
      <Placemark id="MT GRANT">
        <name>MT GRANT</name>
        <description>Latitude: 44.05194444
Longitude: -72.92666667
Name: MT GRANT
State: VT
Elevation: 3623
</description>
        <visibility>1</visibility>
        <Point>
          <coordinates>-72.926667,44.051944</coordinates>
        </Point>
      </Placemark>
      <Placemark id="MT SNOW">
        <name>MT SNOW</name>
        <description>Latitude: 42.95916667
Longitude: -72.92388889
Name: MT SNOW
State: VT
Elevation: 3586
</description>
        <visibility>1</visibility>
        <Point>
          <coordinates>-72.923889,42.959167</coordinates>
        </Point>
      </Placemark>
      <Placemark id="MT HUNGER (N PK)">
        <name>MT HUNGER (N PK)</name>
        <description>Latitude: 44.40083333
Longitude: -72.64388889
Name: MT HUNGER (N PK)
State: VT
Elevation: 3586
</description>
        <visibility>1</visibility>
        <Point>
          <coordinates>-72.643889,44.400833</coordinates>
        </Point>
      </Placemark>
      <Placemark id="MT ROOSEVELT">
        <name>MT ROOSEVELT</name>
        <description>Latitude: 44.02
Longitude: -72.91833333
Name: MT ROOSEVELT
State: VT
Elevation: 3550
</description>
        <visibility>1</visibility>
        <Point>
          <coordinates>-72.918333,44.020000</coordinates>
        </Point>
      </Placemark>
      <Placemark id="FARR PK">
        <name>FARR PK</name>
        <description>Latitude: 43.80916667
Longitude: -72.94444444
Name: FARR PK
State: VT
Elevation: 3522
</description>
        <visibility>1</visibility>
        <Point>
          <coordinates>-72.944444,43.809167</coordinates>
        </Point>
      </Placemark>
      <Placemark id="DORSET MTN (W PK)">
        <name>DORSET MTN (W PK)</name>
        <description>Latitude: 43.30861111
Longitude: -73.06416667
Name: DORSET MTN (W PK)
State: VT
Elevation: 3515
</description>
        <visibility>1</visibility>
        <Point>
          <coordinates>-73.064167,43.308611</coordinates>
        </Point>
      </Placemark>
      <Placemark id="WORCESTER MTNS (N PK)">
        <name>WORCESTER MTNS (N PK)</name>
        <description>Latitude: 44.43055556
Longitude: -72.61277778
Name: WORCESTER MTNS (N PK)
State: VT
Elevation: 3490
</description>
        <visibility>1</visibility>
        <Point>
          <coordinates>-72.612778,44.430556</coordinates>
        </Point>
      </Placemark>
      <Placemark id="BLOODROOT MTN">
        <name>BLOODROOT MTN</name>
        <description>Latitude: 43.78555556
Longitude: -72.93777778
Name: BLOODROOT MTN
State: VT
Elevation: 3485
</description>
        <visibility>1</visibility>
        <Point>
          <coordinates>-72.937778,43.785556</coordinates>
        </Point>
      </Placemark>
      <Placemark id="MT CLEVELAND">
        <name>MT CLEVELAND</name>
        <description>Latitude: 44.04611111
Longitude: -72.90833333
Name: MT CLEVELAND
State: VT
Elevation: 3482
</description>
        <visibility>1</visibility>
        <Point>
          <coordinates>-72.908333,44.046111</coordinates>
        </Point>
      </Placemark>
      <Placemark id="HAYSTACK MTN">
        <name>HAYSTACK MTN</name>
        <description>Latitude: 42.91361111
Longitude: -72.91972222
Name: HAYSTACK MTN
State: VT
Elevation: 3445
</description>
        <visibility>1</visibility>
        <Point>
          <coordinates>-72.919722,42.913611</coordinates>
        </Point>
      </Placemark>
      <Placemark id="EAST MTN">
        <name>EAST MTN</name>
        <description>Latitude: 44.66472222
Longitude: -71.77055556
Name: EAST MTN
State: VT
Elevation: 3439
</description>
        <visibility>1</visibility>
        <Point>
          <coordinates>-71.770556,44.664722</coordinates>
        </Point>
      </Placemark>
      <Placemark id="NORTH JAY PK">
        <name>NORTH JAY PK</name>
        <description>Latitude: 44.9575
Longitude: -72.53666667
Name: NORTH JAY PK
State: VT
Elevation: 3438
</description>
        <visibility>1</visibility>
        <Point>
          <coordinates>-72.536667,44.957500</coordinates>
        </Point>
      </Placemark>
      <Placemark id="PERU PK">
        <name>PERU PK</name>
        <description>Latitude: 43.29444444
Longitude: -72.93805556
Name: PERU PK
State: VT
Elevation: 3435
</description>
        <visibility>1</visibility>
        <Point>
          <coordinates>-72.938056,43.294444</coordinates>
        </Point>
      </Placemark>
      <Placemark id="GLASTENBURY MTN (W PK)">
        <name>GLASTENBURY MTN (W PK)</name>
        <description>Latitude: 42.97777778
Longitude: -73.11027778
Name: GLASTENBURY MTN (W PK)
State: VT
Elevation: 3423
</description>
        <visibility>1</visibility>
        <Point>
          <coordinates>-73.110278,42.977778</coordinates>
        </Point>
      </Placemark>
      <Placemark id="GLASTENBURY MTN (N PK)">
        <name>GLASTENBURY MTN (N PK)</name>
        <description>Latitude: 43.02805556
Longitude: -73.03166667
Name: GLASTENBURY MTN (N PK)
State: VT
Elevation: 3412
</description>
        <visibility>1</visibility>
        <Point>
          <coordinates>-73.031667,43.028056</coordinates>
        </Point>
      </Placemark>
      <Placemark id="RICKER MTN">
        <name>RICKER MTN</name>
        <description>Latitude: 44.42055556
Longitude: -72.82611111
Name: RICKER MTN
State: VT
Elevation: 3410
</description>
        <visibility>1</visibility>
        <Point>
          <coordinates>-72.826111,44.420556</coordinates>
        </Point>
      </Placemark>
      <Placemark id="NORTH JAY PK (S PK)">
        <name>NORTH JAY PK (S PK)</name>
        <description>Latitude: 44.94694444
Longitude: -72.54083333
Name: NORTH JAY PK (S PK)
State: VT
Elevation: 3409
</description>
        <visibility>1</visibility>
        <Point>
          <coordinates>-72.540833,44.946944</coordinates>
        </Point>
      </Placemark>
      <Placemark id="STYLES PK">
        <name>STYLES PK</name>
        <description>Latitude: 43.27361111
Longitude: -72.93861111
Name: STYLES PK
State: VT
Elevation: 3392
</description>
        <visibility>1</visibility>
        <Point>
          <coordinates>-72.938611,43.273611</coordinates>
        </Point>
      </Placemark>
      <Placemark id="MORSE MTN">
        <name>MORSE MTN</name>
        <description>Latitude: 44.57638889
Longitude: -72.75222222
Name: MORSE MTN
State: VT
Elevation: 3390
</description>
        <visibility>1</visibility>
        <Point>
          <coordinates>-72.752222,44.576389</coordinates>
        </Point>
      </Placemark>
      <Placemark id="DEWEY MTN">
        <name>DEWEY MTN</name>
        <description>Latitude: 44.49361111
Longitude: -72.82194444
Name: DEWEY MTN
State: VT
Elevation: 3370
</description>
        <visibility>1</visibility>
        <Point>
          <coordinates>-72.821944,44.493611</coordinates>
        </Point>
      </Placemark>
      <Placemark id="CAPE LOOKOFF MTN">
        <name>CAPE LOOKOFF MTN</name>
        <description>Latitude: 43.85555556
Longitude: -72.97333333
Name: CAPE LOOKOFF MTN
State: VT
Elevation: 3370
</description>
        <visibility>1</visibility>
        <Point>
          <coordinates>-72.973333,43.855556</coordinates>
        </Point>
      </Placemark>
      <Placemark id="SIGNAL MTN">
        <name>SIGNAL MTN</name>
        <description>Latitude: 44.20611111
Longitude: -72.32555556
Name: SIGNAL MTN
State: VT
Elevation: 3370
</description>
        <visibility>1</visibility>
        <Point>
          <coordinates>-72.325556,44.206111</coordinates>
        </Point>
      </Placemark>
      <Placemark id="GILLESPIE PK (WHITE ROCKS MTN)">
        <name>GILLESPIE PK (WHITE ROCKS MTN)</name>
        <description>Latitude: 43.87138889
Longitude: -72.97777778
Name: GILLESPIE PK (WHITE ROCKS MTN)
State: VT
Elevation: 3366
</description>
        <visibility>1</visibility>
        <Point>
          <coordinates>-72.977778,43.871389</coordinates>
        </Point>
      </Placemark>
      <Placemark id="MT CARMEL">
        <name>MT CARMEL</name>
        <description>Latitude: 43.77444444
Longitude: -72.92083333
Name: MT CARMEL
State: VT
Elevation: 3365
</description>
        <visibility>1</visibility>
        <Point>
          <coordinates>-72.920833,43.774444</coordinates>
        </Point>
      </Placemark>
      <Placemark id="MOTHER MYRICK MTN">
        <name>MOTHER MYRICK MTN</name>
        <description>Latitude: 43.21333333
Longitude: -73.11694444
Name: MOTHER MYRICK MTN
State: VT
Elevation: 3361
</description>
        <visibility>1</visibility>
        <Point>
          <coordinates>-73.116944,43.213333</coordinates>
        </Point>
      </Placemark>
      <Placemark id="BELVIDERE MTN">
        <name>BELVIDERE MTN</name>
        <description>Latitude: 44.77305556
Longitude: -72.55138889
Name: BELVIDERE MTN
State: VT
Elevation: 3356
</description>
        <visibility>1</visibility>
        <Point>
          <coordinates>-72.551389,44.773056</coordinates>
        </Point>
      </Placemark>
      <Placemark id="LUDLOW MTN (OKEMO MTN)">
        <name>LUDLOW MTN (OKEMO MTN)</name>
        <description>Latitude: 43.40388889
Longitude: -72.75194444
Name: LUDLOW MTN (OKEMO MTN)
State: VT
Elevation: 3343
</description>
        <visibility>1</visibility>
        <Point>
          <coordinates>-72.751944,43.403889</coordinates>
        </Point>
      </Placemark>
      <Placemark id="ROUND MTN">
        <name>ROUND MTN</name>
        <description>Latitude: 43.81555556
Longitude: -72.885
Name: ROUND MTN
State: VT
Elevation: 3342
</description>
        <visibility>1</visibility>
        <Point>
          <coordinates>-72.885000,43.815556</coordinates>
        </Point>
      </Placemark>
      <Placemark id="COLD HOLLOW MTNS">
        <name>COLD HOLLOW MTNS</name>
        <description>Latitude: 44.7875
Longitude: -72.68944444
Name: COLD HOLLOW MTNS
State: VT
Elevation: 3337
</description>
        <visibility>1</visibility>
        <Point>
          <coordinates>-72.689444,44.787500</coordinates>
        </Point>
      </Placemark>
      <Placemark id="GORE MTN">
        <name>GORE MTN</name>
        <description>Latitude: 44.91972222
Longitude: -71.79416667
Name: GORE MTN
State: VT
Elevation: 3332
</description>
        <visibility>1</visibility>
        <Point>
          <coordinates>-71.794167,44.919722</coordinates>
        </Point>
      </Placemark>
      <Placemark id="GLASTENBURY MTN (S PK)">
        <name>GLASTENBURY MTN (S PK)</name>
        <description>Latitude: 42.93833333
Longitude: -73.05805556
Name: GLASTENBURY MTN (S PK)
State: VT
Elevation: 3331
</description>
        <visibility>1</visibility>
        <Point>
          <coordinates>-73.058056,42.938333</coordinates>
        </Point>
      </Placemark>
      <Placemark id="SPRUCE PK">
        <name>SPRUCE PK</name>
        <description>Latitude: 44.55083333
Longitude: -72.78361111
Name: SPRUCE PK
State: VT
Elevation: 3330
</description>
        <visibility>1</visibility>
        <Point>
          <coordinates>-72.783611,44.550833</coordinates>
        </Point>
      </Placemark>
      <Placemark id="BOYCE MTN">
        <name>BOYCE MTN</name>
        <description>Latitude: 43.97361111
Longitude: -72.94111111
Name: BOYCE MTN
State: VT
Elevation: 3323
</description>
        <visibility>1</visibility>
        <Point>
          <coordinates>-72.941111,43.973611</coordinates>
        </Point>
      </Placemark>
      <Placemark id="BALD MTN">
        <name>BALD MTN</name>
        <description>Latitude: 44.76611111
Longitude: -71.98888889
Name: BALD MTN
State: VT
Elevation: 3310
</description>
        <visibility>1</visibility>
        <Point>
          <coordinates>-71.988889,44.766111</coordinates>
        </Point>
      </Placemark>
      <Placemark id="BEAR MTN">
        <name>BEAR MTN</name>
        <description>Latitude: 43.20083333
Longitude: -73.16722222
Name: BEAR MTN
State: VT
Elevation: 3301
</description>
        <visibility>1</visibility>
        <Point>
          <coordinates>-73.167222,43.200833</coordinates>
        </Point>
      </Placemark>
      <Placemark id="MT WORCESTER">
        <name>MT WORCESTER</name>
        <description>Latitude: 44.44333333
Longitude: -72.59222222
Name: MT WORCESTER
State: VT
Elevation: 3293
</description>
        <visibility>1</visibility>
        <Point>
          <coordinates>-72.592222,44.443333</coordinates>
        </Point>
      </Placemark>
      <Placemark id="GOSHEN MTN">
        <name>GOSHEN MTN</name>
        <description>Latitude: 43.82944444
Longitude: -72.97138889
Name: GOSHEN MTN
State: VT
Elevation: 3292
</description>
        <visibility>1</visibility>
        <Point>
          <coordinates>-72.971389,43.829444</coordinates>
        </Point>
      </Placemark>
      <Placemark id="SALT ASH MTN">
        <name>SALT ASH MTN</name>
        <description>Latitude: 43.5025
Longitude: -72.77444444
Name: SALT ASH MTN
State: VT
Elevation: 3286
</description>
        <visibility>1</visibility>
        <Point>
          <coordinates>-72.774444,43.502500</coordinates>
        </Point>
      </Placemark>
      <Placemark id="BROMLEY">
        <name>BROMLEY</name>
        <description>Latitude: 43.22777778
Longitude: -72.94027778
Name: BROMLEY
State: VT
Elevation: 3281
</description>
        <visibility>1</visibility>
        <Point>
          <coordinates>-72.940278,43.227778</coordinates>
        </Point>
      </Placemark>
      <Placemark id="BLUE RIDGE MTN (S PK)">
        <name>BLUE RIDGE MTN (S PK)</name>
        <description>Latitude: 43.67805556
Longitude: -72.90222222
Name: BLUE RIDGE MTN (S PK)
State: VT
Elevation: 3278
</description>
        <visibility>1</visibility>
        <Point>
          <coordinates>-72.902222,43.678056</coordinates>
        </Point>
      </Placemark>
      <Placemark id="BURKE MTN">
        <name>BURKE MTN</name>
        <description>Latitude: 44.57055556
Longitude: -71.89333333
Name: BURKE MTN
State: VT
Elevation: 3270
</description>
        <visibility>1</visibility>
        <Point>
          <coordinates>-71.893333,44.570556</coordinates>
        </Point>
      </Placemark>
      <Placemark id="WORTH MTN">
        <name>WORTH MTN</name>
        <description>Latitude: 43.91
Longitude: -72.96416667
Name: WORTH MTN
State: VT
Elevation: 3234
</description>
        <visibility>1</visibility>
        <Point>
          <coordinates>-72.964167,43.910000</coordinates>
        </Point>
      </Placemark>
      <Placemark id="ROUND MTN (E PK)">
        <name>ROUND MTN (E PK)</name>
        <description>Latitude: 43.80611111
Longitude: -72.8525
Name: ROUND MTN (E PK)
State: VT
Elevation: 3230
</description>
        <visibility>1</visibility>
        <Point>
          <coordinates>-72.852500,43.806111</coordinates>
        </Point>
      </Placemark>
      <Placemark id="GREEN PK (MT AEOLUS)">
        <name>GREEN PK (MT AEOLUS)</name>
        <description>Latitude: 43.24055556
Longitude: -73.03888889
Name: GREEN PK (MT AEOLUS)
State: VT
Elevation: 3230
</description>
        <visibility>1</visibility>
        <Point>
          <coordinates>-73.038889,43.240556</coordinates>
        </Point>
      </Placemark>
      <Placemark id="MONASTERY MTN (W PK)">
        <name>MONASTERY MTN (W PK)</name>
        <description>Latitude: 43.90694444
Longitude: -72.93861111
Name: MONASTERY MTN (W PK)
State: VT
Elevation: 3224
</description>
        <visibility>1</visibility>
        <Point>
          <coordinates>-72.938611,43.906944</coordinates>
        </Point>
      </Placemark>
      <Placemark id="ADAMS MTN">
        <name>ADAMS MTN</name>
        <description>Latitude: 44.04361111
Longitude: -72.80916667
Name: ADAMS MTN
State: VT
Elevation: 3214
</description>
        <visibility>1</visibility>
        <Point>
          <coordinates>-72.809167,44.043611</coordinates>
        </Point>
      </Placemark>
      <Placemark id="SMITH PK">
        <name>SMITH PK</name>
        <description>Latitude: 43.57611111
Longitude: -72.78416667
Name: SMITH PK
State: VT
Elevation: 3210
</description>
        <visibility>1</visibility>
        <Point>
          <coordinates>-72.784167,43.576111</coordinates>
        </Point>
      </Placemark>
      <Placemark id="PHILADELPHIA PK">
        <name>PHILADELPHIA PK</name>
        <description>Latitude: 43.9
Longitude: -72.88666667
Name: PHILADELPHIA PK
State: VT
Elevation: 3203
</description>
        <visibility>1</visibility>
        <Point>
          <coordinates>-72.886667,43.900000</coordinates>
        </Point>
      </Placemark>
      <Placemark id="HAYSTACK MTN">
        <name>HAYSTACK MTN</name>
        <description>Latitude: 44.82333333
Longitude: -72.53861111
Name: HAYSTACK MTN
State: VT
Elevation: 3196
</description>
        <visibility>1</visibility>
        <Point>
          <coordinates>-72.538611,44.823333</coordinates>
        </Point>
      </Placemark>
      <Placemark id="LUDLOW MTN, S MTN">
        <name>LUDLOW MTN, S MTN</name>
        <description>Latitude: 43.37722222
Longitude: -72.76444444
Name: LUDLOW MTN, S MTN
State: VT
Elevation: 3179
</description>
        <visibility>1</visibility>
        <Point>
          <coordinates>-72.764444,43.377222</coordinates>
        </Point>
      </Placemark>
      <Placemark id="SENECA MTN (S PK)">
        <name>SENECA MTN (S PK)</name>
        <description>Latitude: 44.695
Longitude: -71.80416667
Name: SENECA MTN (S PK)
State: VT
Elevation: 3174
</description>
        <visibility>1</visibility>
        <Point>
          <coordinates>-71.804167,44.695000</coordinates>
        </Point>
      </Placemark>
      <Placemark id="STERLING RANGE (N PK)">
        <name>STERLING RANGE (N PK)</name>
        <description>Latitude: 44.61416667
Longitude: -72.76472222
Name: STERLING RANGE (N PK)
State: VT
Elevation: 3172
</description>
        <visibility>1</visibility>
        <Point>
          <coordinates>-72.764722,44.614167</coordinates>
        </Point>
      </Placemark>
      <Placemark id="MT ETHAN ALLEN (E PK)">
        <name>MT ETHAN ALLEN (E PK)</name>
        <description>Latitude: 44.28444444
Longitude: -72.86472222
Name: MT ETHAN ALLEN (E PK)
State: VT
Elevation: 3170
</description>
        <visibility>1</visibility>
        <Point>
          <coordinates>-72.864722,44.284444</coordinates>
        </Point>
      </Placemark>
      <Placemark id="BURNT ROCK MTN">
        <name>BURNT ROCK MTN</name>
        <description>Latitude: 44.2675
Longitude: -72.89611111
Name: BURNT ROCK MTN
State: VT
Elevation: 3170
</description>
        <visibility>1</visibility>
        <Point>
          <coordinates>-72.896111,44.267500</coordinates>
        </Point>
      </Placemark>
      <Placemark id="MONASTERY MTN (E PK)">
        <name>MONASTERY MTN (E PK)</name>
        <description>Latitude: 43.90333333
Longitude: -72.91472222
Name: MONASTERY MTN (E PK)
State: VT
Elevation: 3170
</description>
        <visibility>1</visibility>
        <Point>
          <coordinates>-72.914722,43.903333</coordinates>
        </Point>
      </Placemark>
      <Placemark id="SENECA MTN (E PK)">
        <name>SENECA MTN (E PK)</name>
        <description>Latitude: 44.6975
Longitude: -71.77472222
Name: SENECA MTN (E PK)
State: VT
Elevation: 3170
</description>
        <visibility>1</visibility>
        <Point>
          <coordinates>-71.774722,44.697500</coordinates>
        </Point>
      </Placemark>
      <Placemark id="BUTTERFIELD MTN">
        <name>BUTTERFIELD MTN</name>
        <description>Latitude: 44.18333333
Longitude: -72.33972222
Name: BUTTERFIELD MTN
State: VT
Elevation: 3167
</description>
        <visibility>1</visibility>
        <Point>
          <coordinates>-72.339722,44.183333</coordinates>
        </Point>
      </Placemark>
      <Placemark id="KIRBY PK">
        <name>KIRBY PK</name>
        <description>Latitude: 43.96277778
Longitude: -72.94555556
Name: KIRBY PK
State: VT
Elevation: 3150
</description>
        <visibility>1</visibility>
        <Point>
          <coordinates>-72.945556,43.962778</coordinates>
        </Point>
      </Placemark>
      <Placemark id="MONADNOCK MTN">
        <name>MONADNOCK MTN</name>
        <description>Latitude: 44.8975
Longitude: -71.54527778
Name: MONADNOCK MTN
State: VT
Elevation: 3148
</description>
        <visibility>1</visibility>
        <Point>
          <coordinates>-71.545278,44.897500</coordinates>
        </Point>
      </Placemark>
      <Placemark id="MT MAYO">
        <name>MT MAYO</name>
        <description>Latitude: 44.46222222
Longitude: -72.83888889
Name: MT MAYO
State: VT
Elevation: 3143
</description>
        <visibility>1</visibility>
        <Point>
          <coordinates>-72.838889,44.462222</coordinates>
        </Point>
      </Placemark>
      <Placemark id="CORPORATION MTN">
        <name>CORPORATION MTN</name>
        <description>Latitude: 43.82916667
Longitude: -72.87944444
Name: CORPORATION MTN
State: VT
Elevation: 3142
</description>
        <visibility>1</visibility>
        <Point>
          <coordinates>-72.879444,43.829167</coordinates>
        </Point>
      </Placemark>
      <Placemark id="MT ASCUTNEY">
        <name>MT ASCUTNEY</name>
        <description>Latitude: 43.44361111
Longitude: -72.455
Name: MT ASCUTNEY
State: VT
Elevation: 3140
</description>
        <visibility>1</visibility>
        <Point>
          <coordinates>-72.455000,43.443611</coordinates>
        </Point>
      </Placemark>
      <Placemark id="NORTHFIELD MTNS (S PK)">
        <name>NORTHFIELD MTNS (S PK)</name>
        <description>Latitude: 44.01833333
Longitude: -72.80972222
Name: NORTHFIELD MTNS (S PK)
State: VT
Elevation: 3130
</description>
        <visibility>1</visibility>
        <Point>
          <coordinates>-72.809722,44.018333</coordinates>
        </Point>
      </Placemark>
      <Placemark id="GLASTENBURY MTN (NE PK)">
        <name>GLASTENBURY MTN (NE PK)</name>
        <description>Latitude: 43.05
Longitude: -73.0075
Name: GLASTENBURY MTN (NE PK)
State: VT
Elevation: 3130
</description>
        <visibility>1</visibility>
        <Point>
          <coordinates>-73.007500,43.050000</coordinates>
        </Point>
      </Placemark>
      <Placemark id="UNNAMED PK (READSBORO)">
        <name>UNNAMED PK (READSBORO)</name>
        <description>Latitude: 42.84888889
Longitude: -72.97
Name: UNNAMED PK (READSBORO)
State: VT
Elevation: 3120
</description>
        <visibility>1</visibility>
        <Point>
          <coordinates>-72.970000,42.848889</coordinates>
        </Point>
      </Placemark>
      <Placemark id="WOODWARD MTN">
        <name>WOODWARD MTN</name>
        <description>Latitude: 44.40666667
Longitude: -72.83305556
Name: WOODWARD MTN
State: VT
Elevation: 3110
</description>
        <visibility>1</visibility>
        <Point>
          <coordinates>-72.833056,44.406667</coordinates>
        </Point>
      </Placemark>
      <Placemark id="WOODLAWN MTN">
        <name>WOODLAWN MTN</name>
        <description>Latitude: 43.3375
Longitude: -73.09833333
Name: WOODLAWN MTN
State: VT
Elevation: 3110
</description>
        <visibility>1</visibility>
        <Point>
          <coordinates>-73.098333,43.337500</coordinates>
        </Point>
      </Placemark>
      <Placemark id="GRASS MTN">
        <name>GRASS MTN</name>
        <description>Latitude: 43.05277778
Longitude: -73.22416667
Name: GRASS MTN
State: VT
Elevation: 3109
</description>
        <visibility>1</visibility>
        <Point>
          <coordinates>-73.224167,43.052778</coordinates>
        </Point>
      </Placemark>
      <Placemark id="HOUGHTON MTN">
        <name>HOUGHTON MTN</name>
        <description>Latitude: 42.81888889
Longitude: -73.08555556
Name: HOUGHTON MTN
State: VT
Elevation: 3095
</description>
        <visibility>1</visibility>
        <Point>
          <coordinates>-73.085556,42.818889</coordinates>
        </Point>
      </Placemark>
      <Placemark id="UNNAMED PK (BRANCH POND)">
        <name>UNNAMED PK (BRANCH POND)</name>
        <description>Latitude: 43.06638889
Longitude: -73.01694444
Name: UNNAMED PK (BRANCH POND)
State: VT
Elevation: 3090
</description>
        <visibility>1</visibility>
        <Point>
          <coordinates>-73.016944,43.066389</coordinates>
        </Point>
      </Placemark>
      <Placemark id="KNOX MTN (M PK)">
        <name>KNOX MTN (M PK)</name>
        <description>Latitude: 44.16527778
Longitude: -72.35666667
Name: KNOX MTN (M PK)
State: VT
Elevation: 3086
</description>
        <visibility>1</visibility>
        <Point>
          <coordinates>-72.356667,44.165278</coordinates>
        </Point>
      </Placemark>
      <Placemark id="EAST HAVEN MTN">
        <name>EAST HAVEN MTN</name>
        <description>Latitude: 44.62138889
Longitude: -71.83333333
Name: EAST HAVEN MTN
State: VT
Elevation: 3070
</description>
        <visibility>1</visibility>
        <Point>
          <coordinates>-71.833333,44.621389</coordinates>
        </Point>
      </Placemark>
      <Placemark id="RICE MTN">
        <name>RICE MTN</name>
        <description>Latitude: 44.05638889
Longitude: -72.80166667
Name: RICE MTN
State: VT
Elevation: 3066
</description>
        <visibility>1</visibility>
        <Point>
          <coordinates>-72.801667,44.056389</coordinates>
        </Point>
      </Placemark>
      <Placemark id="UNNAMED PK (MOSS GLEN FALLS)">
        <name>UNNAMED PK (MOSS GLEN FALLS)</name>
        <description>Latitude: 44.03194444
Longitude: -72.88555556
Name: UNNAMED PK (MOSS GLEN FALLS)
State: VT
Elevation: 3062
</description>
        <visibility>1</visibility>
        <Point>
          <coordinates>-72.885556,44.031944</coordinates>
        </Point>
      </Placemark>
      <Placemark id="MT TABOR">
        <name>MT TABOR</name>
        <description>Latitude: 43.28194444
Longitude: -72.96694444
Name: MT TABOR
State: VT
Elevation: 3061
</description>
        <visibility>1</visibility>
        <Point>
          <coordinates>-72.966944,43.281944</coordinates>
        </Point>
      </Placemark>
      <Placemark id="UMPIRE MTN">
        <name>UMPIRE MTN</name>
        <description>Latitude: 44.56972222
Longitude: -71.9575
Name: UMPIRE MTN
State: VT
Elevation: 3051
</description>
        <visibility>1</visibility>
        <Point>
          <coordinates>-71.957500,44.569722</coordinates>
        </Point>
      </Placemark>
      <Placemark id="BALD HILL">
        <name>BALD HILL</name>
        <description>Latitude: 44.31916667
Longitude: -72.90777778
Name: BALD HILL
State: VT
Elevation: 3050
</description>
        <visibility>1</visibility>
        <Point>
          <coordinates>-72.907778,44.319167</coordinates>
        </Point>
      </Placemark>
      <Placemark id="BLUE RIDGE MTN (N PK)">
        <name>BLUE RIDGE MTN (N PK)</name>
        <description>Latitude: 43.69194444
Longitude: -72.91277778
Name: BLUE RIDGE MTN (N PK)
State: VT
Elevation: 3050
</description>
        <visibility>1</visibility>
        <Point>
          <coordinates>-72.912778,43.691944</coordinates>
        </Point>
      </Placemark>
      <Placemark id="SENECA MTN (N PK)">
        <name>SENECA MTN (N PK)</name>
        <description>Latitude: 44.71277778
Longitude: -71.80166667
Name: SENECA MTN (N PK)
State: VT
Elevation: 3049
</description>
        <visibility>1</visibility>
        <Point>
          <coordinates>-71.801667,44.712778</coordinates>
        </Point>
      </Placemark>
      <Placemark id="SPRUCE PK">
        <name>SPRUCE PK</name>
        <description>Latitude: 43.04444444
Longitude: -73.21027778
Name: SPRUCE PK
State: VT
Elevation: 3033
</description>
        <visibility>1</visibility>
        <Point>
          <coordinates>-73.210278,43.044444</coordinates>
        </Point>
      </Placemark>
      <Placemark id="BRAINTREE MTN (N PK)">
        <name>BRAINTREE MTN (N PK)</name>
        <description>Latitude: 43.95305556
Longitude: -72.78583333
Name: BRAINTREE MTN (N PK)
State: VT
Elevation: 3030
</description>
        <visibility>1</visibility>
        <Point>
          <coordinates>-72.785833,43.953056</coordinates>
        </Point>
      </Placemark>
      <Placemark id="SPRUCE MTN">
        <name>SPRUCE MTN</name>
        <description>Latitude: 44.23444444
Longitude: -72.35555556
Name: SPRUCE MTN
State: VT
Elevation: 3030
</description>
        <visibility>1</visibility>
        <Point>
          <coordinates>-72.355556,44.234444</coordinates>
        </Point>
      </Placemark>
      <Placemark id="UNNAMED PK (STAMFORD)">
        <name>UNNAMED PK (STAMFORD)</name>
        <description>Latitude: 42.78666667
Longitude: -73.1225
Name: UNNAMED PK (STAMFORD)
State: VT
Elevation: 3025
</description>
        <visibility>1</visibility>
        <Point>
          <coordinates>-73.122500,42.786667</coordinates>
        </Point>
      </Placemark>
      <Placemark id="UNNAMED PK (TELEPHONE GAP)">
        <name>UNNAMED PK (TELEPHONE GAP)</name>
        <description>Latitude: 43.75111111
Longitude: -72.88833333
Name: UNNAMED PK (TELEPHONE GAP)
State: VT
Elevation: 3022
</description>
        <visibility>1</visibility>
        <Point>
          <coordinates>-72.888333,43.751111</coordinates>
        </Point>
      </Placemark>
      <Placemark id="NORTH JAY PK (SW PK)">
        <name>NORTH JAY PK (SW PK)</name>
        <description>Latitude: 44.94083333
Longitude: -72.57666667
Name: NORTH JAY PK (SW PK)
State: VT
Elevation: 3015
</description>
        <visibility>1</visibility>
        <Point>
          <coordinates>-72.576667,44.940833</coordinates>
        </Point>
      </Placemark>
      <Placemark id="GILPIN MTN">
        <name>GILPIN MTN</name>
        <description>Latitude: 44.90861111
Longitude: -72.49527778
Name: GILPIN MTN
State: VT
Elevation: 3015
</description>
        <visibility>1</visibility>
        <Point>
          <coordinates>-72.495278,44.908611</coordinates>
        </Point>
      </Placemark>
      <Placemark id="HOOSAC RANGE">
        <name>HOOSAC RANGE</name>
        <description>Latitude: 42.75777778
Longitude: -73.02666667
Name: HOOSAC RANGE
State: VT
Elevation: 3010
</description>
        <visibility>1</visibility>
        <Point>
          <coordinates>-73.026667,42.757778</coordinates>
        </Point>
      </Placemark>
      <Placemark id="TILLOTSON PK">
        <name>TILLOTSON PK</name>
        <description>Latitude: 44.80666667
Longitude: -72.55361111
Name: TILLOTSON PK
State: VT
Elevation: 3002
</description>
        <visibility>1</visibility>
        <Point>
          <coordinates>-72.553611,44.806667</coordinates>
        </Point>
      </Placemark>
    </Folder>
  </Document>
</kml>
