Name,Elevation,State,Latitude,Longitude
BEAR,2996,VT,43.8703,-72.9556
UNNAMED,2995,VT,43.2278,-71.0597
E KNOX,2990,VT,44.1683,-71.66
S DORSET,2970,VT,43.2856,-72.9328
MEACHAM SWAMP PEAK,2970,VT,44.9075,-70.3608
CLARK,2970,VT,44.4789,-71.1586
UNNAMED (STAMFORD POND PEAK),2970,VT,42.8169,-72.9411
MOLLY STARK,2967,VT,44.5553,-71.0733
PETE PARENT,2963,VT,43.3219,-71.0953
N RICE,2963,VT,42.9872,-71.1639
GILLESPIE,2956,VT,43.9561,-71.1239
UNNAMED (BLUE BROOK),2954,VT,42.9942,-71.1267
ROCHESTER,2953,VT,43.8669,-71.2517
RICE HILL,2950,VT,42.9783,-71.1725
MIDDLE,2947,VT,44.9172,-70.1683
GLEBE,2943,VT,43.1889,-71.2392
LYE BROOK MEADOWS PEAK,2941,VT,43.08,-72.9542
BUCHANAN,2940,VT,44.8786,-71.4908
STRATTON POND PEAK,2938,VT,43.1142,-71.0303
ROUND,2932,VT,44.9331,-70.2125
N SNOW,2929,VT,42.9894,-71.0903
DOMEY'S DOME,2923,VT,44.8914,-71.5003
W WINDFARM,2923,VT,42.8719,-71.0156
SCRUB HILL,2916,VT,42.8053,-72.8922
SCRAG,2911,VT,44.1561,-71.2272
BONE,2910,VT,44.4025,-71.1556
NS BRAINTREE,2895,VT,43.9342,-71.2181
GOODWIN,2890,VT,44.7742,-71.9931
DOWNER GLEN PEAK,2886,VT,43.1378,-72.9864
NE DEVIL'S DEN PEAK,2884,VT,43.3597,-71.1275
DARNING NEEDLE,2883,VT,43.7353,-71.1511
TERRIBLE,2882,VT,43.3136,-71.2564
S TILLOTSON,2881,VT,44.7958,-71.4403
NETOP,2878,VT,43.2714,-72.9667
N BAKER,2864,VT,43.3289,-71.04
BALD,2857,VT,42.9222,-72.8558
S LINCOLN GAP PEAK,2850,VT,44.0808,-71.0719
RED,2846,VT,43.1075,-72.8319
NN TERRIBLE,2844,VT,43.3403,-71.2442
NW KNOX,2837,VT,44.1706,-71.6319
SE BULL HILL,2836,VT,43.6781,-71.3281
TINMOUTH,2835,VT,43.4194,-72.9242
MT HOLLY PEAK,2825,VT,43.3753,-71.1564
S ROXBURY GAP PEAK,2823,VT,44.0892,-71.2097
BLACK,2822,VT,44.9272,-70.2525
N BURNT,2821,VT,44.1311,-71.2217
JOB,2810,VT,44.7614,-70.0364
NE S POND PEAK,2810,VT,43.7186,-71.1328
ELBOW PEAK,2808,VT,43.6822,-71.1425
PEABODY HILL,2808,VT,43.3253,-71.1622
WOLF HILL,2805,VT,43.7097,-71.2128
BURNT,2803,VT,43.5417,-71.2278
SPRUCE PEAK,2803,VT,43.2397,-72.8589
LARAWAY,2795,VT,44.7258,-71.2881
NW BOLTON,2790,VT,44.4561,-71.1414
S NORTHFIELD,2790,VT,43.9775,-71.1972
S BLUFF,2789,VT,44.8581,-70.1375
EAST,2787,VT,43.6525,-71.2483
SW COLD HOLLOW,2785,VT,44.7767,-71.2878
THE DOME,2784,VT,42.7697,-72.8303
DORSET HILL,2782,VT,43.2608,-72.9669
WILDER,2782,VT,43.3956,-71.09
DEER LEAP,2782,VT,43.6703,-71.0806
WHEELOCK,2782,VT,44.5575,-71.84
NORTH POND PEAK,2781,VT,43.7436,-71.1178
WILLARD,2779,VT,43.3881,-71.1078
S BRAINTREE,2778,VT,43.9067,-71.2328
N BLUFF,2774,VT,44.8664,-70.1472
PROSPECT,2767,VT,42.875,-72.9333
PISGAH,2766,VT,44.73,-71.9689
NW PEABODY,2766,VT,43.34,-71.1447
BULL,2758,VT,44.73,-70.1611
THE BALL,2755,VT,43.0622,-72.8036
NICKWAKET,2753,VT,43.7789,-71.0058
CUSHMAN,2750,VT,43.8975,-71.2353
KIRBY,2750,VT,44.5467,-70.0947
WOZNIAK,2750,VT,44.77,-70.0281
SS BRAINTREE,2748,VT,42.9136,-71.2342
STONE,2736,VT,44.5608,-70.3342
SE PHILADELPHIA,2735,VT,42.8883,-71.1378
SABLE,2734,VT,44.9225,-70.3139
WEST,2733,VT,44.7094,-70.2958
BROUSSEAU,2732,VT,44.9678,-70.2608
N ELBOW,2730,VT,43.7081,-71.1342
LITTLE WILCOX,2730,VT,43.82,-71.1708
HERRICK,2726,VT,43.5625,-72.9011
HAYSTACK,2724,VT,44.7461,-71.9981
E ROUND,2714,VT,44.9375,-70.2272
DAVE'S,2707,VT,43.7319,-71.1289
UNNAMED (N SHAGBACK),2704,VT,43.6242,-71.2222
PIGEON POND PEAK,2702,VT,44.2428,-71.6856
SOUTH POND PEAK,2696,VT,43.7103,-71.1239
DEVIL'S DEN PEAK,2694,VT,43.3483,-71.1228
N TERRIBLE,2694,VT,43.3297,-71.2467
MILES,2690,VT,44.4811,-70.1883
DELECTABLE,2690,VT,43.6781,-71.3197
BILLINGS,2689,VT,44.7056,-71.3336
WHITE ROCKS,2680,VT,43.4289,-71.0606
DUTCH HILL,2657,VT,42.8081,-72.9997
MT HOR,2655,VT,44.7133,-71.9469
INGALLS HILL,2654,VT,43.5581,-71.22
PARRIS HILL,2654,VT,43.3461,-72.9147
MOOSALAMOO,2640,VT,43.9303,-72.9503
LEAD MINE MOUNTAIN,2635,VT,43.7978,-72.995
THE CAPE,2635,VT,43.8081,-71.0136
BURPEE,2627,VT,43.7044,-71.2514
JOCKEY HILL,2626,VT,43.5644,-71.1711
SABLE,2625,VT,43.7442,-71.2311
IDE MOUNTAIN,2624,VT,44.5433,-71.8397
COOPER HILL,2620,VT,42.9506,-71.1772
QUIMBY,2620,VT,43.6869,-71.2492
PROSPECT (EAST PEAK),2618,VT,42.8711,-72.9658
MORGAN PEAK,2618,VT,43.5858,-71.2572
E READSBORO,2611,VT,42.855,-71.0672
ELMORE,2607,VT,44.5264,-71.4536
MOSES,2602,VT,43.5286,-71.3814
ANTONE,2600,VT,43.2542,-72.8089
STANNARD,2578,VT,44.5225,-71.7886
