Rank,Name,Elevation,Prominence,Latitude,Longitude,State
81,SANDWICH MTN,3980,1200,43.90027778,-71.49861111,NH
82,SOUTH BROTHER,3970,520,45.94416667,-69.00222222,ME
83,SNOW MTN,3960,2330,45.29138889,-70.70972222,ME
84,PICO PK,3957,587,43.63944444,-72.83694444,VT
85,THE BULGE,3950,240,44.51444444,-71.40861111,NH
86,STRATTON MTN,3940,2415,43.08611111,-72.92555556,VT
87,MT NANCY,3926,1026,44.12222222,-71.405,NH
88,THE HORN,3905,255,44.51777778,-71.40055556,NH
89,MT WEEKS (N PK),3900,623,44.46138889,-71.38222222,NH
90,MT WEEKS (S PK),3885,351,44.44222222,-71.38888889,NH
91,GOOSE EYE MTN,3870,1380,44.50277778,-71,ME
92,VOSE SPUR,3862,242,44.10277778,-71.435,NH
93,THE SLEEPERS (E PK),3860,320,43.94666667,-71.42583333,NH
94,JAY PK,3858,2970,44.92444444,-72.52638889,VT
95,WHITE CAP MTN,3856,1006,45.23611111,-70.81833333,ME
96,PANTHER,3855,485,45.26722222,-70.84166667,ME
97,EQUINOX MTN,3850,3060,43.16583333,-73.11805556,VT
98,MENDON PK,3840,290,43.595,-72.84666667,VT
99,BREAD LOAF MTN,3835,1405,44.00194444,-72.94166667,VT
100,BIGELOW MTN (THE HORNS S PK),3805,495,45.145,-70.32361111,ME
101,MT COE,3795,305,45.93361111,-69.00944444,ME
102,EAST KENNEBAGO MTN,3791,1801,45.12166667,-70.6,ME
103,BALDPATE MTN (E PK),3790,2240,44.60916667,-70.89277778,ME
104,BIG JAY,3786,391,44.915,-72.54111111,VT
105,SNOW MTN,3784,1274,45.16916667,-70.82722222,ME
106,MT WILSON,3780,210,44.00472222,-72.92611111,VT
107,KENNEBAGO DIVIDE (N PK),3775,365,45.2225,-70.81611111,ME
108,SCAR RIDGE (W PK),3774,674,44.02916667,-71.59583333,NH
109,ELEPHANT MTN,3772,2062,44.76805556,-70.78222222,ME
110,REDINGTON POND RANGE (M PK),3770,250,45.00777778,-70.39472222,ME
111,DORSET PK,3770,2840,43.30916667,-73.02861111,VT
112,CANNON BALLS (NE PK),3769,349,44.15,-71.71055556,NH
113,MAHOOSUC ARM,3765,235,44.56055556,-70.97861111,ME
114,MT KANCAMAGUS,3763,863,44.01111111,-71.47944444,NH
115,WEST KENNEBAGO MTN (N PK),3750,881,45.12027778,-70.81611111,ME
116,MT ABRAHAM (M PK),3750,340,44.95777778,-70.30472222,ME
117,GLASTENBURY MTN,3748,1121,42.97777778,-73.07222222,VT
118,MT LOWELL,3740,600,44.10361111,-71.41861111,NH
119,MT ANDERSON,3740,480,44.1125,-71.41833333,NH
120,SHELBURNE MORIAH MTN,3735,445,44.35305556,-71.09916667,NH
121,SHREWSBURY PK,3730,640,43.57555556,-72.80638889,VT
122,HUTCHINS MTN MT PILOT,3730,511,44.54805556,-71.455,NH
123,COBURN MTN,3730,2520,45.46861111,-70.12694444,ME
124,BUNNEL MTN (BLUE MTN),3730,1800,44.79138889,-71.47916667,NH
125,MT DARTMOUTH,3727,720,44.3025,-71.38416667,NH
126,MT BEMIS,3725,265,44.12694444,-71.39416667,NH
127,WEST KENNEBAGO MTN,3713,220,45.10694444,-70.81694444,ME
128,STERLING MTN (WHITE FACE MTN),3713,1543,44.58222222,-72.74027778,VT
129,SUGARLOAF,3710,600,44.74416667,-71.46833333,NH
130,BLACK NUBBLE,3710,920,45.03194444,-70.4475,ME
131,KENNEBAGO DIVIDE (S PK),3705,555,45.20583333,-70.82888889,ME
132,ZEALE,3700,280,44.2008,-71.5183,NH
133,MT HUNTINGTON (S PK),3700,200,44.04611111,-71.48555556,NH
134,MT HUNTINGTON,3700,840,44.0501,-71.4912,NH
135,BARREN MTN,3696,686,45.91916667,-68.98305556,ME
136,MT FIELD (W PK),3691,211,44.18916667,-71.4475,NH
137,BOLTON MTN,3690,1800,44.44916667,-72.84027778,VT
138,MT ETHAN ALLEN,3688,878,44.29361111,-72.88472222,VT
139,GOOSE EYE MTN (N PK),3675,285,44.51611111,-70.98888889,ME
140,MT DECEPTION (E PK),3671,571,44.29361111,-71.42111111,NH
141,MT ABRAHAM (S PK),3671,261,44.94361111,-70.29083333,ME
142,GARFIELD RIDGE (W PK),3667,227,44.18972222,-71.59583333,NH
143,GENERAL STARK MTN,3662,232,44.18416667,-72.92916667,VT
144,BALDPATE MTN (W PK),3662,232,44.60138889,-70.9025,ME
145,LONG MTN (W PK),3661,241,44.66944444,-71.40277778,NH
146,LONG MTN (M PK),3661,1711,44.6799,-71.3794,NH
147,SADDLEBACK JUNIOR,3655,265,44.95805556,-70.45833333,ME
148,WHITE CAP MTN,3654,2624,45.55444444,-69.24722222,ME
149,TERRACE MTN,3654,613,44.47722222,-71.39583333,NH
150,RUMP MTN,3654,1524,45.20361111,-71.06388889,ME
151,KIBBY MTN,3654,2264,45.41861111,-70.54472222,ME
152,THE OWL,3650,300,45.90916667,-68.95861111,ME
153,MADONNA PK,3650,700,44.56138889,-72.75888889,VT
154,EAST KENNEBAGO MTN (W PK),3650,880,45.10194444,-70.63888889,ME
155,CARIBOU MTN (W PK),3650,1240,45.42972222,-70.62361111,ME
156,COW RIDGE,3645,1435,45.19194444,-70.72944444,ME
157,MT PUTNAM (WORCESTER),3642,2472,44.41833333,-72.63888889,VT
158,BOUNDARY BALD MTN,3630,2002,45.76666667,-70.20416667,ME
159,STUB HILL,3627,1337,45.10666667,-71.09805556,NH
160,MT GRANT,3623,673,44.05194444,-72.92666667,VT
161,SCAR RIDGE (E PK),3620,360,44.01916667,-71.56555556,NH
162,MT HITCHCOCK,3620,560,44.07416667,-71.54,NH
163,PILOT RIDGE (M PK),3615,325,44.53388889,-71.43777778,NH
164,MUISE MTN,3615,1265,44.7855,-71.3781,NH
165,NORTH BALDFACE,3610,1260,44.24277778,-71.0875,NH
166,GORE MTN,3610,360,44.77388889,-71.46583333,NH
167,BURNT HILL,3609,439,45.03555556,-70.28277778,ME
168,PLINY MTN,3606,466,44.41666667,-71.39333333,NH
169,BOIL MTN,3601,1111,45.24305556,-70.73611111,ME
170,OLD BLUE MTN,3592,620,44.74694444,-70.76611111,ME
171,CARIBOU MTN (M PK),3591,220,45.43527778,-70.615,ME
172,WEST PK,3590,260,44.75416667,-71.49638889,NH
173,GARFIELD RIDGE (E PK),3590,205,44.19277778,-71.5825,NH
174,BEMIS MTN,3590,320,44.79472222,-70.76861111,ME
175,TUMBLEDOWN MTN,3588,998,45.44916667,-70.47083333,ME
176,MT SNOW,3586,1351,42.95916667,-72.92388889,VT
177,MT HUNGER (N PK),3586,316,44.40083333,-72.64388889,VT
178,CHERRY MTN (MT MARTHA),3572,1574,44.33083333,-71.49972222,NH
179,SOUTH BALDFACE,3570,300,44.23083333,-71.07833333,NH
180,MARY MTN,3570,230,44.52833333,-71.42861111,NH
181,JACKSON MTN,3568,1798,44.76222222,-70.52055556,ME
182,MT SUCCESS,3565,675,44.47138889,-71.03972222,NH
183,MT CARLO,3565,415,44.48916667,-71.00861111,ME
184,MT CLOUGH,3561,1261,44.02916667,-71.87277778,NH
185,UNNAMED (BOUNDARY PK DENNISON BOG),3552,259,45.2375,-70.83694444,ME
186,MT ROOSEVELT,3550,280,44.02,-72.91833333,VT
187,THE FOOL KILLER,3548,208,43.97138889,-71.42694444,NH
188,UNNAMED BDY PK BROWN (N PK),3541,571,45.4025,-70.62194444,ME
189,TRAVELER MTN (THE TRAVELER),3541,2331,46.07277778,-68.845,ME
190,THE CAPTAIN,3540,240,44.08388889,-71.46277778,NH
191,TWIN MTNS,3536,346,45.15194444,-70.825,ME
192,FARR PK,3522,1378,43.80916667,-72.94444444,VT
193,BAKER MTN,3521,2191,45.57111111,-69.39444444,ME
194,SABLE MTN,3519,629,44.21472222,-71.09638889,NH
195,DORSET MTN (W PK),3515,545,43.30861111,-73.06416667,VT
196,UNNAMED (UNKNOWN POND PK),3510,400,44.5285,-71.3803,NH
197,UNNAMED (RAIN W PK),3510,420,45.39805556,-70.59805556,ME
198,SAVAGE MTN,3510,1360,44.73194444,-71.545,NH
199,SCAR RIDGE (M PK),3500,240,44.02527778,-71.58083333,NH
200,MT WOLF,3500,920,44.0775,-71.75388889,NH
201,MT HITCHCOCK (S PK),3500,200,44.06638889,-71.52861111,NH
202,MT CHOCORUA,3500,1280,43.95444444,-71.27388889,NH
203,WORCESTER MTNS (N PK),3490,440,44.43055556,-72.61277778,VT
204,DIXVILLE PK,3490,900,44.83583333,-71.31861111,NH
205,DOUBLETOP MTN,3489,2079,45.93583333,-69.06166667,ME
206,MT GREYLOCK,3488,2474,42.6374,-73.1662,MA
207,BLOODROOT MTN,3485,375,43.78555556,-72.93777778,VT
208,MT CLEVELAND,3482,372,44.04611111,-72.90833333,VT
209,MT KELSEY,3472,1102,44.80138889,-71.31444444,NH
210,MAHOOSUC MTN,3470,440,44.54888889,-70.98666667,ME
211,LITTLE JACKSON MTN,3470,420,44.75416667,-70.53611111,ME
212,TWIN MTNS (SW PK),3469,419,45.14305556,-70.84527778,ME
213,STAIRS MTN,3463,528,44.155,-71.31888889,NH
214,MULLEN MTN,3463,813,45.97972222,-68.97555556,ME
215,BOUNDARY BALD MTN (E PK),3459,209,45.77277778,-70.17888889,ME
216,CARR MTN,3453,1480,43.88472222,-71.84388889,NH
217,FULLING MILL MTN,3450,420,44.53666667,-70.98,ME
218,DEER MTN,3450,1540,45.00472222,-70.92444444,ME
219,UNNAMED (BUMP E PK),3447,417,45.45694444,-70.63361111,ME
220,HAYSTACK MTN,3444,383,42.91361111,-72.91972222,VT
221,EAST MTN,3439,2229,44.66472222,-71.77055556,VT
222,NORTH JAY PK,3438,811,44.9575,-72.53666667,VT
223,PERU PK,3435,1477,43.29444444,-72.93805556,VT
224,MT OJI,3434,324,45.92777778,-69.01583333,ME
225,UNNAMED (BUMP),3430,280,45.45444444,-70.64527778,ME
226,SISK MTN (N PK),3430,440,45.37472222,-70.63027778,ME
227,NORTH PERCY PEAK,3430,800,44.66305556,-71.43555556,NH
228,GLASTENBURY MTN (W PK),3423,413,42.97777778,-73.11027778,VT
229,STUB HILL (N PK),3422,242,45.11833333,-71.1025,NH
230,EAGLE CLIFF,3420,440,44.16861111,-71.67194444,NH
231,MT RESOLUTION,3415,355,44.1475,-71.31444444,NH
232,GLASTENBURY MTN (N PK),3412,576,43.02805556,-73.03166667,VT
233,RICKER MTN,3410,640,44.42055556,-72.82611111,VT
234,DOLL PK,3408,210,44.94694444,-72.54083333,VT
235,WHITEWALL MTN,3405,305,44.1825,-71.4725,NH
236,SPOTTED MTN (M PK),3401,1571,45.04111111,-70.71861111,ME
237,MT HUNTINGTON (W PK),3393,203,44.04361111,-71.50666667,NH
238,ONION HILL,3392,402,45.25305556,-70.72222222,ME
239,TEAPOT MTN,3390,340,44.7475,-71.55666667,NH
240,SALMON MTN,3390,880,45.24305556,-71.13388889,NH
241,RICE MTN,3390,1380,44.85277778,-71.24083333,NH
242,MT PISGAH,3390,1048,45.37277778,-70.66361111,ME
243,MORSE MTN,3390,251,44.57638889,-72.75222222,VT
244,BIGELOW MTN (HORNS POND PK),3390,220,45.1425,-70.34388889,ME
245,MAGALLOWAY MTN,3383,1013,45.06333333,-71.16305556,NH
246,MILLEN HILL,3375,255,44.29361111,-71.36527778,NH
247,MT TREMONT,3371,1591,44.05333333,-71.3575,NH
248,SIGNAL MTN,3370,2140,44.20611111,-72.32555556,VT
249,DEWEY MTN,3370,700,44.49361111,-72.82194444,VT
250,CAPE LOOKOFF MTN,3370,1200,43.85555556,-72.97333333,VT
251,GILLESPIE PK (WHITE ROCKS MTN),3366,336,43.87138889,-72.97777778,VT
252,MT CARMEL,3365,755,43.77444444,-72.92083333,VT
253,MOTHER MYRICK MTN,3361,1091,43.21333333,-73.11694444,VT
254,BAKER MTN (M PK),3361,222,45.55805556,-69.38944444,ME
255,BELVIDERE MTN,3356,1564,44.77305556,-72.55138889,VT
256,WHITCOMB MTN,3354,984,44.74361111,-71.37055556,NH
257,LITTLE WILDCAT MTN,3350,280,44.27722222,-71.21,NH
258,LUDLOW MTN (OKEMO MTN),3343,1227,43.40388889,-72.75194444,VT
259,ROUND MTN,3342,952,43.81555556,-72.885,VT
260,DUCK POND MTN,3340,200,44.10694444,-71.39527778,NH
261,WHITCOMB MTN (S PK),3338,308,44.73,-71.37194444,NH
262,COLD HOLLOW MTNS,3337,2165,44.7875,-72.68944444,VT
263,SUNDAY RIVER WHITECAP,3335,985,44.54888889,-70.89722222,ME
264,CHANDLER MTN,3335,565,44.20222222,-71.10638889,NH
265,GORE MTN,3332,1971,44.91972222,-71.79416667,VT
266,MT HITCHCOCK (E PK),3331,211,44.07611111,-71.51472222,NH
267,GLASTENBURY MTN (S PK),3331,561,42.93833333,-73.05805556,VT
268,FLAT MTN,3331,551,43.92861111,-71.46222222,NH
269,SPRUCE PK,3330,340,44.55083333,-72.78361111,VT
270,MERRILL MTN,3330,988,45.47611111,-70.68777778,ME
271,BLUE MTN (W PK),3326,240,44.79027778,-71.50555556,NH
272,NORTH TURNER MTN,3325,1715,45.9725,-68.84444444,ME
273,CARIBOU MTN (E PK),3325,243,45.44416667,-70.6,ME
274,BOYCE MTN,3323,273,43.97361111,-72.94111111,VT
275,UNNAMED (BOUNDARY PK MON 410),3319,219,45.445,-70.65138889,ME
276,JACKSON MTN (N PK),3319,219,44.78083333,-70.52805556,ME
277,NUMBER SIX MTN,3315,1385,45.49416667,-70.40861111,ME
278,MT KINEO,3313,1253,43.92916667,-71.79888889,NH
279,BALD MTN,3310,1780,44.76611111,-71.98888889,VT
280,BAKER MTN (S PK),3307,226,45.55138889,-69.39805556,ME
281,MT HUNTINGTON (E PK),3306,206,44.03888889,-71.46944444,NH
282,BLACK MTN,3304,714,44.22527778,-71.15611111,NH
283,SPENCER BALE MTN,3301,571,45.41527778,-70.49888889,ME
284,BEAR MTN,3301,722,43.20083333,-73.16722222,VT
285,BIG COOLIDGE MTN,3294,554,44.07944444,-71.64305556,NH
286,MT WORCESTER,3293,403,44.44333333,-72.59222222,VT
287,GOSHEN MTN,3292,262,43.82944444,-72.97138889,VT
288,BEAR MTN (W PK),3290,1015,44.45472222,-70.96527778,ME
289,SALT ASH MTN,3286,1196,43.5025,-72.77444444,VT
290,KIBBY RANGE (N PK),3286,876,45.35222222,-70.57694444,ME
291,LILY BAY MTN (E PK),3281,571,45.59055556,-69.41722222,ME
292,BROMLEY,3280,849,43.22777778,-72.94027778,VT
293,CRYSTAL MTN (N PK),3279,1149,44.9375,-71.21027778,NH
294,BLUE RIDGE MTN (S PK),3278,1308,43.67805556,-72.90222222,VT
295,UNNAMED (BOUNDARY POND PK),3277,747,45.27055556,-71.11666667,NH
296,SMART MTN (W PK) (LAYTON PK),3270,640,45.46888889,-70.62861111,ME
297,SISK MTN,3270,420,45.34666667,-70.62861111,ME
298,BURKE MTN,3270,1600,44.57055556,-71.89333333,VT
299,KEARSARGE NORTH,3268,1758,44.10583333,-71.09444444,NH
300,BLACK CRESCENT MTN,3264,1070,44.43944444,-71.27111111,NH
301,BIG BICKFORD MTN,3261,201,44.19694444,-71.65472222,NH
302,SADDLE BALL MTN,3257,227,42.6137,-73.1916,MA
303,CENTER RIDGE (PEAK OF THE RIDGES),3254,344,46.07416667,-68.86861111,ME
304,MT CRESCENT,3251,781,44.40416667,-71.29472222,NH
305,UNNAMED PK (CUPSUPTIC POND),3250,763,45.22472222,-70.91611111,ME
306,SLIDE MTN,3250,400,44.55055556,-70.9225,ME
307,SADDLE HILL (E PK),3250,1120,45.34416667,-71.00194444,ME
308,HAY MTN,3250,280,45.5525,-69.27222222,ME
309,SMART MTN,3245,235,45.47277778,-70.61055556,ME
310,SMARTS MTN,3238,2188,43.82555556,-72.03916667,NH
311,WORTH MTN,3234,784,43.91,-72.96416667,VT
312,SOUTH PERCY PEAK,3234,344,44.65638889,-71.43555556,NH
313,LILY BAY MTN,3234,224,45.59111111,-69.43694444,ME
314,ROUND MTN (E PK),3230,580,43.80611111,-72.8525,VT
315,GREEN PK (MT AEOLUS),3230,1140,43.24055556,-73.03888889,VT
316,DIAMOND RIDGE,3230,700,45.09194444,-71.13611111,NH
317,CRYSTAL MTN (NW PK),3230,340,44.9723,-71.2297,NH
318,MONASTERY MTN (W PK),3224,854,43.90694444,-72.93861111,VT
319,LITTLE SPRUCE MTN,3222,532,45.53722222,-69.21722222,ME
320,MT CUSHMAN,3221,690,43.95833333,-71.77916667,NH
321,BEAR MTN,3220,1440,44.02944444,-71.30222222,NH
322,ADAMS MTN,3214,1804,44.04361111,-72.80916667,VT
323,WEST ROYCE MTN,3210,1340,44.30222222,-71.01861111,NH
324,SMITH PK,3210,320,43.57611111,-72.78416667,VT
325,REDINGTON POND RANGE (S PK),3210,200,44.99805556,-70.41027778,ME
326,FARMER MTN,3210,660,44.94694444,-70.33416667,ME
327,BIG SPENCER MTN,3210,1920,45.77555556,-69.44361111,ME
328,PHILADELPHIA PK,3203,633,43.9,-72.88666667,VT
329,MT PAUGUS,3198,978,43.95111111,-71.32944444,NH
330,NORTH MOAT MTN,3196,1176,44.04305556,-71.215,NH
331,HAYSTACK MTN,3195,587,44.82333333,-72.53861111,VT
332,THREE SLIDE MTN (W PK),3194,424,45.44277778,-70.43194444,ME
333,MT HITCHCOCK (N PK),3194,214,44.08722222,-71.54472222,NH
334,BIGELOW MTN (CRANBERRY PK),3194,744,45.14083333,-70.38083333,ME
335,BIG SQUAW MTN,3194,2124,45.48388889,-69.71194444,ME
336,CAVE MTN,3191,581,44.88388889,-71.26611111,NH
337,VAN DYKE MTN,3190,620,45.49277778,-70.67888889,ME
338,UNNAMED PK (NORTHWEST POND),3190,320,45.31083333,-70.80888889,ME
339,SPOTTED MTN (E PK),3190,340,45.04833333,-70.66638889,ME
340,SADDLE HILL (W PK),3190,200,45.3477,-71.0106,ME
341,MT BLUE,3190,1840,44.72805556,-70.3425,ME
342,LOWER AZISCOHOS MTN,3190,1640,44.91416667,-71.0025,ME
343,DEER MTN (S PK),3190,820,45.18972222,-71.22583333,NH
344,BLUE MTN (N PK),3190,500,44.82027778,-71.49305556,NH
345,BLACK NUBBLE (W PK),3190,220,45.01638889,-70.46416667,ME
346,NUMBER FIVE MTN,3186,416,45.50111111,-70.38722222,ME
347,WHEELER MTN,3183,622,44.44861111,-70.90972222,ME
348,BLACK MTN,3183,1113,45.18694444,-70.65861111,ME
349,"LUDLOW MTN, S MTN",3179,768,43.37722222,-72.76444444,VT
350,WEST PK,3178,348,45.545,-69.29638889,ME
351,SENECA MTN (S PK),3174,624,44.695,-71.80416667,VT
352,BAG POND MTN,3173,783,45.305,-70.66083333,ME
353,STERLING RANGE (N PK),3172,802,44.61416667,-72.76472222,VT
354,STONEY BROOK MTN,3170,320,45.07055556,-70.37027778,ME
355,SENECA MTN (E PK),3170,320,44.6975,-71.77472222,VT
356,MT ETHAN ALLEN (E PK),3170,230,44.28444444,-72.86472222,VT
357,MONASTERY MTN (E PK),3170,288,43.90333333,-72.91472222,VT
358,BURNT ROCK MTN,3170,220,44.2675,-72.89611111,VT
359,BUTTERFIELD MTN,3167,777,44.18333333,-72.33972222,VT
360,BOUNDARY BALD MTN (W PK),3167,397,45.77916667,-70.24,ME
361,COW RIDGE (S PK),3162,269,45.1725,-70.74472222,ME
362,BLACK MTN,3162,212,44.45638889,-70.90972222,ME
363,ROUND MTN (N PK),3161,371,45.27611111,-70.685,ME
364,MONADNOCK MTN,3159,2155,42.86083333,-72.10888889,NH
365,BEAVER MTN,3159,1069,44.88166667,-70.63944444,ME
366,NORTH TRAVELER MTN,3157,607,46.10027778,-68.85555556,ME
367,MT CARDIGAN,3155,1925,43.64916667,-71.91472222,NH
368,ROUND MTN (M PK),3150,340,45.25972222,-70.67138889,ME
369,KIRBY PK,3150,200,43.96277778,-72.94555556,VT
370,BOSEBUCK MTN,3150,380,45.11416667,-71.05555556,ME
371,MONADNOCK MTN,3148,1538,44.8975,-71.54527778,VT
372,MT MAYO,3143,273,44.46222222,-72.83888889,VT
373,PUZZLE MTN,3142,1372,44.54666667,-70.78888889,ME
374,POPLAR RIDGE,3142,252,44.97222222,-70.44861111,ME
375,MT HEDGEHOG,3140,240,43.9414,-71.3642,NH
376,MT ASCUTNEY,3140,2289,43.44361111,-72.455,VT
377,MT KENT,3137,387,45.23138889,-71.095,NH
378,BULL MTN,3136,326,45.1475,-70.87222222,ME
379,UNNAMED PK (LEDGE POND),3130,460,44.91638889,-70.53527778,ME
380,UNNAMED (BOUNDARY PK CUPSUPTIC PD),3130,400,45.24305556,-70.89833333,ME
381,NORTHFIELD MTNS (S PK),3130,380,44.01833333,-72.80972222,VT
382,GLASTENBURY MTN (NE PK),3130,230,43.05,-73.0075,VT
383,UNNAMED PK (CARIBOU FLOW),3122,532,45.41611111,-70.5725,ME
384,BIG SHANTY MTN,3121,450,45.54833333,-69.19527778,ME
385,UNNAMED PK (READSBORO),3120,850,42.84888889,-72.97,VT
386,MT CRAWFORD,3119,259,44.13666667,-71.33305556,NH
387,EAST ROYCE MTN,3114,504,44.30722222,-71.00611111,ME
388,WOODWARD MTN,3110,200,44.40666667,-72.83305556,VT
389,WOODLAWN MTN,3110,1380,43.3375,-73.09833333,VT
390,SOUTH TURNER MTN,3110,560,45.94111111,-68.85111111,ME
391,SANDY BAY MTN,3110,1160,45.75416667,-70.39416667,ME
392,ELEPHANT MTN (E PK),3110,220,44.77972222,-70.75027778,ME
393,GRASS MTN,3109,2199,43.05277778,-73.22416667,VT
394,BIG SPRUCE MTN,3103,476,45.53222222,-69.24694444,ME
395,BLUE RIDGE (N PK),3102,372,44.95583333,-71.24694444,NH
396,MT TUCKER (W PK),3097,687,44.9413,-71.1661,NH
397,MT RANDOLPH (N PK),3097,292,44.3968,-71.3166,NH
398,BALDHEAD MTN (S PK),3097,467,44.8224,-71.3671,NH
399,HOUGHTON MTN,3095,698,42.81888889,-73.08555556,VT
400,UNNAMED PK (BRANCH POND),3090,320,43.06638889,-73.01694444,VT
401,TUMBLEDOWN MTN (N PK),3090,300,44.75,-70.54916667,ME
402,KIBBY MTN (E PK),3088,418,45.33472222,-70.53666667,ME
403,KNOX MTN (M PK),3086,696,44.16527778,-72.35666667,VT
404,MT PISGAH,3081,471,44.99555556,-71.21305556,NH
405,UNNAMED PK (BARKER POND),3070,811,45.30583333,-71.03444444,ME
406,LITTLE SPENCER MTN,3070,1780,45.75833333,-69.53277778,ME
407,LITTLE BIGELOW MTN,3070,860,45.13444444,-70.21722222,ME
408,EAST HAVEN MTN,3070,860,44.62138889,-71.83333333,VT
409,COBURN MTN (E PK),3070,200,45.48027778,-70.11166667,ME
410,RICE MTN,3066,216,44.05638889,-72.80166667,VT
411,LOON MTN (N PK),3065,205,44.03611111,-71.62166667,NH
412,BALD CAP,3065,735,44.44944444,-71.10305556,NH
413,MT HITCHCOCK (W PK),3064,224,44.07194444,-71.55333333,NH
414,WOLF CUB GORDON POND PEAK,3063,283,44.07166667,-71.74,NH
415,UNNAMED (MOSS GLEN FALLS),3062,212,44.03194444,-72.88555556,VT
416,MT TABOR,3061,237,43.28194444,-72.96694444,VT
417,WHALEBACK MTN (S PK),3060,200,44.08,-71.60888889,NH
418,NORTH DOUBLEHEAD,3053,963,44.16777778,-71.13055556,NH
419,UNNAMED (SHOAL POND PK),3051,511,44.1497,-71.4807,NH
420,UMPIRE MTN,3051,981,44.56972222,-71.9575,VT
421,TWIN PKS,3050,784,45.31333333,-70.98972222,ME
422,BLUE RIDGE MTN (N PK),3050,205,43.69194444,-72.91277778,VT
423,BALD HILL,3050,260,44.31916667,-72.90777778,VT
424,SENECA MTN (N PK),3049,218,44.71277778,-71.80166667,VT
425,KIBBY RANGE (S PK),3043,353,45.32583333,-70.58527778,ME
426,MOOSE MTN,3041,691,45.47444444,-70.58027778,ME
427,BEAR MTN (E PK),3041,316,44.45722222,-70.93444444,ME
428,PEAKED MTN,3037,507,45.455,-70.53472222,ME
429,SPRUCE PK,3033,463,43.04444444,-73.21027778,VT
430,UNNAMED BDY PK (MASS. BOG),3030,468,45.32805556,-70.81305556,ME
431,SPRUCE MTN,3030,860,44.23444444,-72.35555556,VT
432,RED RIDGE,3030,840,44.61,-71.02277778,ME
433,POTATO NUBBLE,3030,520,44.97805556,-70.5025,ME
434,LEROY PEAK,3030,340,45.44805556,-70.50138889,ME
435,BRAINTREE MTN (N PK),3030,640,43.95305556,-72.78583333,VT
436,ROUND MTN (E PK),3027,497,45.25805556,-70.65777778,ME
437,SQUAWS BOSOM,3026,516,45.93333333,-69.08638889,ME
438,UNNAMED (STAMFORD),3025,535,42.78666667,-73.1225,VT
439,UNNAMED (TELEPHONE GAP),3022,712,43.75111111,-72.88833333,VT
440,LONG MTN,3021,891,44.59111111,-70.8175,ME
441,NORTH JAY PK (SW PK),3015,407,44.94083333,-72.57666667,VT
442,GILPIN MTN,3015,781,44.90861111,-72.49527778,VT
443,NUMBER SIX MTN (S PK),3011,481,45.47944444,-70.42277778,ME
444,SPRUCE MTN (E PK),3010,202,44.72055556,-71.54888889,NH
445,SPOTTED MTN (NW PK),3010,400,45.05333333,-70.75444444,ME
446,SPOTTED MTN (N PK),3010,300,45.05527778,-70.74222222,ME
447,MT DURBAN,3010,665,45.29527778,-71.10527778,NH
448,MARBLE MTN,3010,200,45.33388889,-71.0125,ME
449,HOOSAC RANGE,3010,1104,42.75777778,-73.02666667,VT
450,BOTTLE MTN,3010,540,45.18333333,-70.89666667,ME
451,MT ROSEBROOK,3004,264,44.24305556,-71.47166667,NH
