# Adirondack 3000 Footers
#
# Authority: self
# List Rules: 200' col, Threshold is 4000 feet and higher.
# History: Data seeded from the Northeast 777 list.
#
# TODO:
# - Validate coordinates

---
location: NY
list_name: ADK-4000-footers
autogenerated_columns:
  - Rank
ordered_columns:
  - Rank
  - Name
  - Elevation
  - Prominence
  - Latitude
  - Longitude
  - State
prominence_threshold: 200
peaks:
-
    Name: MT MARCY
    Elevation: 5344
    Latitude: 44.1125
    Longitude: -73.92416667
    State: NY
    Prominence: 4919
-
    Name: ALGONQUIN PK
    Elevation: 5114
    Latitude: 44.14361111
    Longitude: -73.98694444
    State: NY
    Prominence: 2113
-
    Name: MT HAYSTACK
    Elevation: 4961
    Latitude: 44.10555556
    Longitude: -73.90111111
    State: NY
    Prominence: 843
-
    Name: MT SKYLIGHT
    Elevation: 4925
    Latitude: 44.09944444
    Longitude: -73.93138889
    State: NY
    Prominence: 577
-
    Name: WHITEFACE MTN
    Elevation: 4865
    Latitude: 44.36555556
    Longitude: -73.90361111
    State: NY
    Prominence: 3110
# DELISTED: IROQUOIS PK: Insufficient Col
# -
#     Name: IROQUOIS PK
#     Elevation: 4849
#     Latitude: 44.13694444
#     Longitude: -73.99861111
#     State: NY
#     Prominence: 174
-
    Name: DIX MTN
    Elevation: 4839
    Latitude: 44.08222222
    Longitude: -73.78666667
    State: NY
    Prominence: 2822
-
    Name: BASIN MTN
    Elevation: 4826
    Latitude: 44.12111111
    Longitude: -73.88694444
    State: NY
    Prominence: 742
# DELISTED: GRAY PEAK: Insufficient Col (Not even close!)
# -
#     Name: GRAY PEAK
#     Elevation: 4826
#     Latitude: 44.11138889
#     Longitude: -73.93555556
#     State: NY
#     Prominence: 118
-
    Name: GOTHICS
    Elevation: 4734
    Latitude: 44.12777778
    Longitude: -73.85777778
    State: NY
    Prominence: 715
-
    Name: MT COLDEN
    Elevation: 4715
    Latitude: 44.12694444
    Longitude: -73.96055556
    State: NY
    Prominence: 892
-
    Name: GIANT MTN
    Elevation: 4625
    Latitude: 44.16111111
    Longitude: -73.72055556
    State: NY
    Prominence: 2969
-
    Name: NIPPLE TOP
    Elevation: 4609
    Latitude: 44.08888889
    Longitude: -73.81638889
    State: NY
    Prominence: 1378
-
    Name: MT REDFIELD
    Elevation: 4606
    Latitude: 44.09472222
    Longitude: -73.95027778
    State: NY
    Prominence: 259
-
    Name: SANTANONI PK
    Elevation: 4606
    Latitude: 44.08222222
    Longitude: -74.13138889
    State: NY
    Prominence: 2425
-
    Name: WRIGHT PK
    Elevation: 4587
    Latitude: 44.15166667
    Longitude: -73.98
    State: NY
    Prominence: 272
-
    Name: SADDLEBACK MTN
    Elevation: 4527
    Latitude: 44.12638889
    Longitude: -73.87527778
    State: NY
    Prominence: 377
# DELISTED: ARMSTRONG MTN: Insufficient Col (Not even close!)
# -
#     Name: ARMSTRONG MTN
#     Elevation: 4446
#     Latitude: 44.13444444
#     Longitude: -73.85
#     State: NY
#     Prominence: 131
-
    Name: PANTHER PK
    Elevation: 4442
    Latitude: 44.09833333
    Longitude: -74.13277778
    State: NY
    Prominence: 292
-
    Name: TABLE TOP MTN
    Elevation: 4412
    Latitude: 44.14055556
    Longitude: -73.91666667
    State: NY
    Prominence: 426
-
    Name: HOUGH PK
    Elevation: 4409
    Latitude: 44.06944444
    Longitude: -73.77805556
    State: NY
    Prominence: 390
-
    Name: MACOMB MTN
    Elevation: 4390
    Latitude: 44.05166667
    Longitude: -73.78027778
    State: NY
    Prominence: 600
-
    Name: ROCKY PEAK RIDGE
    Elevation: 4383
    Latitude: 44.15416667
    Longitude: -73.70583333
    State: NY
    Prominence: 627
-
    Name: MT MARSHALL
    Elevation: 4379
    Latitude: 44.1275
    Longitude: -74.0125
    State: NY
    Prominence: 525
-
    Name: ALLEN MTN
    Elevation: 4347
    Latitude: 44.07083333
    Longitude: -73.94
    State: NY
    Prominence: 660
-
    Name: SEWARD MTN
    Elevation: 4347
    Latitude: 44.15972222
    Longitude: -74.2
    State: NY
    Prominence: 2035
-
    Name: TABLE TOP MTN (E PK)
    Elevation: 4304
    Latitude: 44.14361111
    Longitude: -73.90777778
    State: NY
    Prominence: 285
-
    Name: BIG SLIDE MTN
    Elevation: 4249
    Latitude: 44.18222222
    Longitude: -73.87138889
    State: NY
    Prominence: 1115
-
    Name: ESTHER MTN
    Elevation: 4238
    Latitude: 44.38694444
    Longitude: -73.89027778
    State: NY
    Prominence: 318
-
    Name: UPPER WOLFJAW MTN
    Elevation: 4202
    Latitude: 44.14027778
    Longitude: -73.84583333
    State: NY
    Prominence: 282
-
    Name: LOWER WOLFJAW MTN
    Elevation: 4173
    Latitude: 44.14805556
    Longitude: -73.83305556
    State: NY
    Prominence: 679
-
    Name: PHELPS MTN
    Elevation: 4160
    Latitude: 44.15694444
    Longitude: -73.92166667
    State: NY
    Prominence: 207
-
    Name: SAWTEETH
    Elevation: 4150
    Latitude: 44.11444444
    Longitude: -73.85055556
    State: NY
    Prominence: 492
-
    Name: STREET MTN
    Elevation: 4150
    Latitude: 44.17944444
    Longitude: -74.0275
    State: NY
    Prominence: 1280
# DELISTED DONALDSON MTN: Insufficient Col
# -
#     Name: DONALDSON MTN
#     Elevation: 4107
#     Latitude: 44.15388889
#     Longitude: -74.21194444
#     State: NY
#     Prominence: 154
-
    Name: CASCADE MTN
    Elevation: 4097
    Latitude: 44.21833333
    Longitude: -73.86055556
    State: NY
    Prominence: 1194
-
    Name: SEYMOUR MTN
    Elevation: 4091
    Latitude: 44.15805556
    Longitude: -74.17277778
    State: NY
    Prominence: 1024
-
    Name: MT COLVIN
    Elevation: 4084
    Latitude: 44.09388889
    Longitude: -73.83472222
    State: NY
    Prominence: 754
# DELISTED SOUTH DIX: Insufficient Col
# -
#     Name: SOUTH DIX
#     Elevation: 4084
#     Latitude: 44.06
#     Longitude: -73.77472222
#     State: NY
#     Prominence: 197
-
    Name: PORTER MTN
    Elevation: 4085
    Latitude: 44.21222222
    Longitude: -73.85416667
    State: NY
    Prominence: 328
# DELISTED MT EMMONS: Insufficient Col, Not even close!
# -
#     Name: MT EMMONS
#     Elevation: 4039
#     Latitude: 44.14388889
#     Longitude: -74.21472222
#     State: NY
#     Prominence: 118
# DELISTED DIAL MTN: Insufficient Col
# -
#     Name: DIAL MTN
#     Elevation: 4019
#     Latitude: 44.10583333
#     Longitude: -73.79666667
#     State: NY
#     Prominence: 197
-
    Name: YARD MTN
    Elevation: 4009
    Latitude: 44.17444444
    Longitude: -73.88527778
    State: NY
    Prominence: 220
-
    Name: GRACE PK (EAST DIX)
    Elevation: 4006
    Latitude: 44.06527778
    Longitude: -73.75777778
    State: NY
    Prominence: 315
