# New England Fifty Finest (NEFF)
#
# Authority: self
# List Rules: 50 most prominent peaks in New England.
#
---
location: NewEngland
list_name: NewEngland-50-finest
autogenerated_columns:
  - Rank
sortby: Prominence
import:
    - NH-3000.yml
    - ME-3000.yml
    - VT-3000.yml
    - MA-3000.yml
forced_import:
    - NH-4000.yml
    - ME-4000.yml
    - VT-4000.yml
    - NH-3000.yml
    - ME-3000.yml
    - VT-3000.yml
    - MA-3000.yml
max: 50
prominence_style: true
peaks:
-
    Name: MT SHAW
    Elevation: 2990
    Latitude: 43.74394
    Longitude: -71.274112
    State: NH
    Prominence: 2320
-
    Name: MT KEARSARGE
    Elevation: 2937
    Latitude: 43.383245
    Longitude: -71.857142
    State: NH
    Prominence: 2100
-
    Name: BELKNAP MTN
    Elevation: 2382
    Latitude: 43.518001
    Longitude: -71.369388
    State: NH
    Prominence: 1850
-
    Name: SADDLEBACK MTN
    Elevation: 2998
    Latitude: 45.509482
    Longitude: -69.135994
    State: NH
    Prominence: 1850
-
    Name: MOXIE MTN
    Elevation: 2930
    Latitude: 45.206782
    Longitude: -69.893914
    State: NH
    Prominence: 1820
