# Vermont 4000 Footers
#
# Authority: self
# List Rules: 200' col, Threshold is 4000 feet and higher.
# History: Data seeded from the Northeast 777 list.
#
# TODO:
# - Validate coordinates


---
location: VT
standalone: false
peaks:
-
    Name: MT MANSFIELD (CHIN)
    Elevation: 4393
    Latitude: 44.54361111
    Longitude: -72.81472222
    State: VT
    Prominence: 3643
-
    Name: KILLINGTON PEAK
    Elevation: 4235
    Latitude: 43.60444444
    Longitude: -72.82055556
    State: VT
    Prominence: 3325
-
    Name: CAMELS HUMP
    Elevation: 4090
    Latitude: 44.31944444
    Longitude: -72.88666667
    State: VT
    Prominence: 2140
-
    Name: MT ELLEN
    Elevation: 4083
    Latitude: 44.15972222
    Longitude: -72.92916667
    State: VT
    Prominence: 1873
-
    Name: MT MANSFIELD (THE NOSE)
    Elevation: 4062
    Latitude: 44.5265
    Longitude: -72.8151
    State: VT
    Prominence: 212
-
    Name: MT ABRAHAM
    Elevation: 4006
    Latitude: 44.12027778
    Longitude: -72.93666667
    State: VT
    Prominence: 296
