<kml xmlns="http://www.opengis.net/kml/2.2">
  <Document id="NY-4000-Footers">
    <name>NY-4000-Footers</name>
    <description>pinmap for NY-4000-Footers</description>
    <visibility>1</visibility>
    <Folder id="NY-4000-Footers">
      <name>NY-4000-Footers</name>
      <description>kml map of list points for NY-4000-Footers</description>
      <visibility>1</visibility>
      <Placemark id="MT MARCY">
        <name>MT MARCY</name>
        <description>Elevation: 5344
Latitude: 44.1125
Longitude: -73.92416667
Name: MT MARCY
Prominence: 4919
Rank: 6
State: NY
</description>
        <visibility>1</visibility>
        <Point>
          <coordinates>-73.924167,44.112500</coordinates>
        </Point>
      </Placemark>
      <Placemark id="ALGONQUIN PK">
        <name>ALGONQUIN PK</name>
        <description>Elevation: 5114
Latitude: 44.14361111
Longitude: -73.98694444
Name: ALGONQUIN PK
Prominence: 2113
Rank: 7
State: NY
</description>
        <visibility>1</visibility>
        <Point>
          <coordinates>-73.986944,44.143611</coordinates>
        </Point>
      </Placemark>
      <Placemark id="MT HAYSTACK">
        <name>MT HAYSTACK</name>
        <description>Elevation: 4961
Latitude: 44.10555556
Longitude: -73.90111111
Name: MT HAYSTACK
Prominence: 843
Rank: 8
State: NY
</description>
        <visibility>1</visibility>
        <Point>
          <coordinates>-73.901111,44.105556</coordinates>
        </Point>
      </Placemark>
      <Placemark id="MT SKYLIGHT">
        <name>MT SKYLIGHT</name>
        <description>Elevation: 4925
Latitude: 44.09944444
Longitude: -73.93138889
Name: MT SKYLIGHT
Prominence: 577
Rank: 9
State: NY
</description>
        <visibility>1</visibility>
        <Point>
          <coordinates>-73.931389,44.099444</coordinates>
        </Point>
      </Placemark>
      <Placemark id="WHITEFACE MTN">
        <name>WHITEFACE MTN</name>
        <description>Elevation: 4865
Latitude: 44.36555556
Longitude: -73.90361111
Name: WHITEFACE MTN
Prominence: 3110
Rank: 10
State: NY
</description>
        <visibility>1</visibility>
        <Point>
          <coordinates>-73.903611,44.365556</coordinates>
        </Point>
      </Placemark>
      <Placemark id="DIX MTN">
        <name>DIX MTN</name>
        <description>Elevation: 4839
Latitude: 44.08222222
Longitude: -73.78666667
Name: DIX MTN
Prominence: 2822
Rank: 11
State: NY
</description>
        <visibility>1</visibility>
        <Point>
          <coordinates>-73.786667,44.082222</coordinates>
        </Point>
      </Placemark>
      <Placemark id="BASIN MTN">
        <name>BASIN MTN</name>
        <description>Elevation: 4826
Latitude: 44.12111111
Longitude: -73.88694444
Name: BASIN MTN
Prominence: 742
Rank: 12
State: NY
</description>
        <visibility>1</visibility>
        <Point>
          <coordinates>-73.886944,44.121111</coordinates>
        </Point>
      </Placemark>
      <Placemark id="GOTHICS">
        <name>GOTHICS</name>
        <description>Elevation: 4734
Latitude: 44.12777778
Longitude: -73.85777778
Name: GOTHICS
Prominence: 715
Rank: 13
State: NY
</description>
        <visibility>1</visibility>
        <Point>
          <coordinates>-73.857778,44.127778</coordinates>
        </Point>
      </Placemark>
      <Placemark id="MT COLDEN">
        <name>MT COLDEN</name>
        <description>Elevation: 4715
Latitude: 44.12694444
Longitude: -73.96055556
Name: MT COLDEN
Prominence: 892
Rank: 14
State: NY
</description>
        <visibility>1</visibility>
        <Point>
          <coordinates>-73.960556,44.126944</coordinates>
        </Point>
      </Placemark>
      <Placemark id="GIANT MTN">
        <name>GIANT MTN</name>
        <description>Elevation: 4625
Latitude: 44.16111111
Longitude: -73.72055556
Name: GIANT MTN
Prominence: 2969
Rank: 15
State: NY
</description>
        <visibility>1</visibility>
        <Point>
          <coordinates>-73.720556,44.161111</coordinates>
        </Point>
      </Placemark>
      <Placemark id="NIPPLE TOP">
        <name>NIPPLE TOP</name>
        <description>Elevation: 4609
Latitude: 44.08888889
Longitude: -73.81638889
Name: NIPPLE TOP
Prominence: 1378
Rank: 16
State: NY
</description>
        <visibility>1</visibility>
        <Point>
          <coordinates>-73.816389,44.088889</coordinates>
        </Point>
      </Placemark>
      <Placemark id="SANTANONI PK">
        <name>SANTANONI PK</name>
        <description>Elevation: 4606
Latitude: 44.08222222
Longitude: -74.13138889
Name: SANTANONI PK
Prominence: 2425
Rank: 17
State: NY
</description>
        <visibility>1</visibility>
        <Point>
          <coordinates>-74.131389,44.082222</coordinates>
        </Point>
      </Placemark>
      <Placemark id="MT REDFIELD">
        <name>MT REDFIELD</name>
        <description>Elevation: 4606
Latitude: 44.09472222
Longitude: -73.95027778
Name: MT REDFIELD
Prominence: 259
Rank: 18
State: NY
</description>
        <visibility>1</visibility>
        <Point>
          <coordinates>-73.950278,44.094722</coordinates>
        </Point>
      </Placemark>
      <Placemark id="WRIGHT PK">
        <name>WRIGHT PK</name>
        <description>Elevation: 4587
Latitude: 44.15166667
Longitude: -73.98
Name: WRIGHT PK
Prominence: 272
Rank: 19
State: NY
</description>
        <visibility>1</visibility>
        <Point>
          <coordinates>-73.980000,44.151667</coordinates>
        </Point>
      </Placemark>
      <Placemark id="SADDLEBACK MTN">
        <name>SADDLEBACK MTN</name>
        <description>Elevation: 4527
Latitude: 44.12638889
Longitude: -73.87527778
Name: SADDLEBACK MTN
Prominence: 377
Rank: 20
State: NY
</description>
        <visibility>1</visibility>
        <Point>
          <coordinates>-73.875278,44.126389</coordinates>
        </Point>
      </Placemark>
      <Placemark id="PANTHER PK">
        <name>PANTHER PK</name>
        <description>Elevation: 4442
Latitude: 44.09833333
Longitude: -74.13277778
Name: PANTHER PK
Prominence: 292
Rank: 21
State: NY
</description>
        <visibility>1</visibility>
        <Point>
          <coordinates>-74.132778,44.098333</coordinates>
        </Point>
      </Placemark>
      <Placemark id="TABLE TOP MTN">
        <name>TABLE TOP MTN</name>
        <description>Elevation: 4412
Latitude: 44.14055556
Longitude: -73.91666667
Name: TABLE TOP MTN
Prominence: 426
Rank: 22
State: NY
</description>
        <visibility>1</visibility>
        <Point>
          <coordinates>-73.916667,44.140556</coordinates>
        </Point>
      </Placemark>
      <Placemark id="HOUGH PK">
        <name>HOUGH PK</name>
        <description>Elevation: 4409
Latitude: 44.06944444
Longitude: -73.77805556
Name: HOUGH PK
Prominence: 390
Rank: 23
State: NY
</description>
        <visibility>1</visibility>
        <Point>
          <coordinates>-73.778056,44.069444</coordinates>
        </Point>
      </Placemark>
      <Placemark id="MACOMB MTN">
        <name>MACOMB MTN</name>
        <description>Elevation: 4390
Latitude: 44.05166667
Longitude: -73.78027778
Name: MACOMB MTN
Prominence: 600
Rank: 24
State: NY
</description>
        <visibility>1</visibility>
        <Point>
          <coordinates>-73.780278,44.051667</coordinates>
        </Point>
      </Placemark>
      <Placemark id="ROCKY PEAK RIDGE">
        <name>ROCKY PEAK RIDGE</name>
        <description>Elevation: 4383
Latitude: 44.15416667
Longitude: -73.70583333
Name: ROCKY PEAK RIDGE
Prominence: 627
Rank: 25
State: NY
</description>
        <visibility>1</visibility>
        <Point>
          <coordinates>-73.705833,44.154167</coordinates>
        </Point>
      </Placemark>
      <Placemark id="MT MARSHALL">
        <name>MT MARSHALL</name>
        <description>Elevation: 4379
Latitude: 44.1275
Longitude: -74.0125
Name: MT MARSHALL
Prominence: 525
Rank: 26
State: NY
</description>
        <visibility>1</visibility>
        <Point>
          <coordinates>-74.012500,44.127500</coordinates>
        </Point>
      </Placemark>
      <Placemark id="SEWARD MTN">
        <name>SEWARD MTN</name>
        <description>Elevation: 4347
Latitude: 44.15972222
Longitude: -74.2
Name: SEWARD MTN
Prominence: 2035
Rank: 27
State: NY
</description>
        <visibility>1</visibility>
        <Point>
          <coordinates>-74.200000,44.159722</coordinates>
        </Point>
      </Placemark>
      <Placemark id="ALLEN MTN">
        <name>ALLEN MTN</name>
        <description>Elevation: 4347
Latitude: 44.07083333
Longitude: -73.94
Name: ALLEN MTN
Prominence: 660
Rank: 28
State: NY
</description>
        <visibility>1</visibility>
        <Point>
          <coordinates>-73.940000,44.070833</coordinates>
        </Point>
      </Placemark>
      <Placemark id="TABLE TOP MTN (E PK)">
        <name>TABLE TOP MTN (E PK)</name>
        <description>Elevation: 4304
Latitude: 44.14361111
Longitude: -73.90777778
Name: TABLE TOP MTN (E PK)
Prominence: 285
Rank: 29
State: NY
</description>
        <visibility>1</visibility>
        <Point>
          <coordinates>-73.907778,44.143611</coordinates>
        </Point>
      </Placemark>
      <Placemark id="BIG SLIDE MTN">
        <name>BIG SLIDE MTN</name>
        <description>Elevation: 4249
Latitude: 44.18222222
Longitude: -73.87138889
Name: BIG SLIDE MTN
Prominence: 1115
Rank: 30
State: NY
</description>
        <visibility>1</visibility>
        <Point>
          <coordinates>-73.871389,44.182222</coordinates>
        </Point>
      </Placemark>
      <Placemark id="ESTHER MTN">
        <name>ESTHER MTN</name>
        <description>Elevation: 4238
Latitude: 44.38694444
Longitude: -73.89027778
Name: ESTHER MTN
Prominence: 318
Rank: 31
State: NY
</description>
        <visibility>1</visibility>
        <Point>
          <coordinates>-73.890278,44.386944</coordinates>
        </Point>
      </Placemark>
      <Placemark id="UPPER WOLFJAW MTN">
        <name>UPPER WOLFJAW MTN</name>
        <description>Elevation: 4202
Latitude: 44.14027778
Longitude: -73.84583333
Name: UPPER WOLFJAW MTN
Prominence: 282
Rank: 32
State: NY
</description>
        <visibility>1</visibility>
        <Point>
          <coordinates>-73.845833,44.140278</coordinates>
        </Point>
      </Placemark>
      <Placemark id="SLIDE MTN">
        <name>SLIDE MTN</name>
        <description>Elevation: 4190
Latitude: 41.99916667
Longitude: -74.38611111
Name: SLIDE MTN
Prominence: 3295
Rank: 33
State: NY
</description>
        <visibility>1</visibility>
        <Point>
          <coordinates>-74.386111,41.999167</coordinates>
        </Point>
      </Placemark>
      <Placemark id="LOWER WOLFJAW MTN">
        <name>LOWER WOLFJAW MTN</name>
        <description>Elevation: 4173
Latitude: 44.14805556
Longitude: -73.83305556
Name: LOWER WOLFJAW MTN
Prominence: 679
Rank: 34
State: NY
</description>
        <visibility>1</visibility>
        <Point>
          <coordinates>-73.833056,44.148056</coordinates>
        </Point>
      </Placemark>
      <Placemark id="PHELPS MTN">
        <name>PHELPS MTN</name>
        <description>Elevation: 4160
Latitude: 44.15694444
Longitude: -73.92166667
Name: PHELPS MTN
Prominence: 207
Rank: 35
State: NY
</description>
        <visibility>1</visibility>
        <Point>
          <coordinates>-73.921667,44.156944</coordinates>
        </Point>
      </Placemark>
      <Placemark id="STREET MTN">
        <name>STREET MTN</name>
        <description>Elevation: 4150
Latitude: 44.17944444
Longitude: -74.0275
Name: STREET MTN
Prominence: 1280
Rank: 36
State: NY
</description>
        <visibility>1</visibility>
        <Point>
          <coordinates>-74.027500,44.179444</coordinates>
        </Point>
      </Placemark>
      <Placemark id="SAWTEETH">
        <name>SAWTEETH</name>
        <description>Elevation: 4150
Latitude: 44.11444444
Longitude: -73.85055556
Name: SAWTEETH
Prominence: 492
Rank: 37
State: NY
</description>
        <visibility>1</visibility>
        <Point>
          <coordinates>-73.850556,44.114444</coordinates>
        </Point>
      </Placemark>
      <Placemark id="CASCADE MTN">
        <name>CASCADE MTN</name>
        <description>Elevation: 4097
Latitude: 44.21833333
Longitude: -73.86055556
Name: CASCADE MTN
Prominence: 1194
Rank: 38
State: NY
</description>
        <visibility>1</visibility>
        <Point>
          <coordinates>-73.860556,44.218333</coordinates>
        </Point>
      </Placemark>
      <Placemark id="SEYMOUR MTN">
        <name>SEYMOUR MTN</name>
        <description>Elevation: 4091
Latitude: 44.15805556
Longitude: -74.17277778
Name: SEYMOUR MTN
Prominence: 1024
Rank: 39
State: NY
</description>
        <visibility>1</visibility>
        <Point>
          <coordinates>-74.172778,44.158056</coordinates>
        </Point>
      </Placemark>
      <Placemark id="PORTER MTN">
        <name>PORTER MTN</name>
        <description>Elevation: 4085
Latitude: 44.21222222
Longitude: -73.85416667
Name: PORTER MTN
Prominence: 328
Rank: 40
State: NY
</description>
        <visibility>1</visibility>
        <Point>
          <coordinates>-73.854167,44.212222</coordinates>
        </Point>
      </Placemark>
      <Placemark id="SOUTH DIX">
        <name>SOUTH DIX</name>
        <description>Elevation: 4084
Latitude: 44.06
Longitude: -73.77472222
Name: SOUTH DIX
Prominence: 197
Rank: 41
State: NY
</description>
        <visibility>1</visibility>
        <Point>
          <coordinates>-73.774722,44.060000</coordinates>
        </Point>
      </Placemark>
      <Placemark id="MT COLVIN">
        <name>MT COLVIN</name>
        <description>Elevation: 4084
Latitude: 44.09388889
Longitude: -73.83472222
Name: MT COLVIN
Prominence: 754
Rank: 42
State: NY
</description>
        <visibility>1</visibility>
        <Point>
          <coordinates>-73.834722,44.093889</coordinates>
        </Point>
      </Placemark>
      <Placemark id="HUNTER MTN">
        <name>HUNTER MTN</name>
        <description>Elevation: 4050
Latitude: 42.1775
Longitude: -74.23083333
Name: HUNTER MTN
Prominence: 2160
Rank: 43
State: NY
</description>
        <visibility>1</visibility>
        <Point>
          <coordinates>-74.230833,42.177500</coordinates>
        </Point>
      </Placemark>
      <Placemark id="DIAL MTN">
        <name>DIAL MTN</name>
        <description>Elevation: 4019
Latitude: 44.10583333
Longitude: -73.79666667
Name: DIAL MTN
Prominence: 197
Rank: 44
State: NY
</description>
        <visibility>1</visibility>
        <Point>
          <coordinates>-73.796667,44.105833</coordinates>
        </Point>
      </Placemark>
      <Placemark id="YARD MTN">
        <name>YARD MTN</name>
        <description>Elevation: 4009
Latitude: 44.17444444
Longitude: -73.88527778
Name: YARD MTN
Prominence: 220
Rank: 45
State: NY
</description>
        <visibility>1</visibility>
        <Point>
          <coordinates>-73.885278,44.174444</coordinates>
        </Point>
      </Placemark>
      <Placemark id="GRACE PK (EAST DIX)">
        <name>GRACE PK (EAST DIX)</name>
        <description>Elevation: 4006
Latitude: 44.06527778
Longitude: -73.75777778
Name: GRACE PK (EAST DIX)
Prominence: 315
Rank: 46
State: NY
</description>
        <visibility>1</visibility>
        <Point>
          <coordinates>-73.757778,44.065278</coordinates>
        </Point>
      </Placemark>
    </Folder>
  </Document>
</kml>
