<kml xmlns="http://www.opengis.net/kml/2.2">
  <Document id="ME-4000-Footers">
    <name>ME-4000-Footers</name>
    <description>pinmap for ME-4000-Footers</description>
    <visibility>1</visibility>
    <Folder id="ME-4000-Footers">
      <name>ME-4000-Footers</name>
      <description>kml map of list points for ME-4000-Footers</description>
      <visibility>1</visibility>
      <Placemark id="MT KATAHDIN (BAXTER PK)">
        <name>MT KATAHDIN (BAXTER PK)</name>
        <description>Latitude: 45.90416667
Longitude: -68.92194444
Elevation: 5268
State: ME
Name: MT KATAHDIN (BAXTER PK)
</description>
        <visibility>1</visibility>
        <Point>
          <coordinates>-68.921944,45.904167</coordinates>
        </Point>
      </Placemark>
      <Placemark id="MT KATAHDIN (HAMLIN PK)">
        <name>MT KATAHDIN (HAMLIN PK)</name>
        <description>Latitude: 45.92416667
Longitude: -68.92833333
Elevation: 4756
State: ME
Name: MT KATAHDIN (HAMLIN PK)
</description>
        <visibility>1</visibility>
        <Point>
          <coordinates>-68.928333,45.924167</coordinates>
        </Point>
      </Placemark>
      <Placemark id="SUGARLOAF MTN">
        <name>SUGARLOAF MTN</name>
        <description>Latitude: 45.03166667
Longitude: -70.31361111
Elevation: 4250
State: ME
Name: SUGARLOAF MTN
</description>
        <visibility>1</visibility>
        <Point>
          <coordinates>-70.313611,45.031667</coordinates>
        </Point>
      </Placemark>
      <Placemark id="CROCKER MTN">
        <name>CROCKER MTN</name>
        <description>Latitude: 45.04694444
Longitude: -70.38333333
Elevation: 4228
State: ME
Name: CROCKER MTN
</description>
        <visibility>1</visibility>
        <Point>
          <coordinates>-70.383333,45.046944</coordinates>
        </Point>
      </Placemark>
      <Placemark id="OLD SPECK MTN">
        <name>OLD SPECK MTN</name>
        <description>Latitude: 44.57083333
Longitude: -70.95416667
Elevation: 4170
State: ME
Name: OLD SPECK MTN
</description>
        <visibility>1</visibility>
        <Point>
          <coordinates>-70.954167,44.570833</coordinates>
        </Point>
      </Placemark>
      <Placemark id="NORTH BROTHER">
        <name>NORTH BROTHER</name>
        <description>Latitude: 45.95694444
Longitude: -68.98583333
Elevation: 4151
State: ME
Name: NORTH BROTHER
</description>
        <visibility>1</visibility>
        <Point>
          <coordinates>-68.985833,45.956944</coordinates>
        </Point>
      </Placemark>
      <Placemark id="BIGELOW MTN (WEST PK)">
        <name>BIGELOW MTN (WEST PK)</name>
        <description>Latitude: 45.14666667
Longitude: -70.28861111
Elevation: 4145
State: ME
Name: BIGELOW MTN (WEST PK)
</description>
        <visibility>1</visibility>
        <Point>
          <coordinates>-70.288611,45.146667</coordinates>
        </Point>
      </Placemark>
      <Placemark id="SADDLEBACK MTN">
        <name>SADDLEBACK MTN</name>
        <description>Latitude: 44.93638889
Longitude: -70.505
Elevation: 4120
State: ME
Name: SADDLEBACK MTN
</description>
        <visibility>1</visibility>
        <Point>
          <coordinates>-70.505000,44.936389</coordinates>
        </Point>
      </Placemark>
      <Placemark id="BIGELOW MTN (AVERY PK)">
        <name>BIGELOW MTN (AVERY PK)</name>
        <description>Latitude: 45.14666667
Longitude: -70.27583333
Elevation: 4090
State: ME
Name: BIGELOW MTN (AVERY PK)
</description>
        <visibility>1</visibility>
        <Point>
          <coordinates>-70.275833,45.146667</coordinates>
        </Point>
      </Placemark>
      <Placemark id="MT ABRAHAM">
        <name>MT ABRAHAM</name>
        <description>Latitude: 44.97277778
Longitude: -70.32694444
Elevation: 4050
State: ME
Name: MT ABRAHAM
</description>
        <visibility>1</visibility>
        <Point>
          <coordinates>-70.326944,44.972778</coordinates>
        </Point>
      </Placemark>
      <Placemark id="SOUTH CROCKER MTN">
        <name>SOUTH CROCKER MTN</name>
        <description>Latitude: 45.03611111
Longitude: -70.37638889
Elevation: 4050
State: ME
Name: SOUTH CROCKER MTN
</description>
        <visibility>1</visibility>
        <Point>
          <coordinates>-70.376389,45.036111</coordinates>
        </Point>
      </Placemark>
      <Placemark id="SADDLEBACK MTN THE HORN">
        <name>SADDLEBACK MTN THE HORN</name>
        <description>Latitude: 44.95111111
Longitude: -70.4875
Elevation: 4041
State: ME
Name: SADDLEBACK MTN THE HORN
</description>
        <visibility>1</visibility>
        <Point>
          <coordinates>-70.487500,44.951111</coordinates>
        </Point>
      </Placemark>
      <Placemark id="MT REDINGTON">
        <name>MT REDINGTON</name>
        <description>Latitude: 45.025
Longitude: -70.38916667
Elevation: 4010
State: ME
Name: MT REDINGTON
</description>
        <visibility>1</visibility>
        <Point>
          <coordinates>-70.389167,45.025000</coordinates>
        </Point>
      </Placemark>
      <Placemark id="SPAULDING MTN">
        <name>SPAULDING MTN</name>
        <description>Latitude: 45.00277778
Longitude: -70.33388889
Elevation: 4010
State: ME
Name: SPAULDING MTN
</description>
        <visibility>1</visibility>
        <Point>
          <coordinates>-70.333889,45.002778</coordinates>
        </Point>
      </Placemark>
    </Folder>
  </Document>
</kml>
