Rank,Name,Elevation,Prominence,Latitude,Longitude,State
156,BLACK DOME,3990,2080,42.27,-74.12333333,NY
157,BLAKE PK,3986,591,44.08111111,-73.845,NY
158,MACNAUGHTON MTN,3982,849,44.13972222,-74.06472222,NY
159,SANDWICH MTN,3980,1200,43.90027778,-71.49861111,NH
160,SOUTH BROTHER,3970,520,45.94416667,-69.00222222,ME
161,SNOW MTN,3960,2330,45.29138889,-70.70972222,ME
162,GREEN MTN,3959,859,44.18194444,-73.715,NY
163,PICO PK,3957,587,43.63944444,-72.83694444,VT
164,THOMAS COLE MTN,3950,220,42.27083333,-74.13666667,NY
165,THE BULGE,3950,240,44.51444444,-71.40861111,NH
166,BLACKHEAD,3950,520,42.26777778,-74.10527778,NY
167,CLIFF MTN,3943,482,44.10333333,-73.97555556,NY
168,STRATTON MTN,3940,2415,43.08611111,-72.92555556,VT
169,MCDONNEL MTN,3940,250,44.08055556,-73.93472222,NY
170,MT NANCY,3926,1026,44.12222222,-71.405,NH
171,THE HORN,3905,255,44.51777778,-71.40055556,NH
172,SNOWY MTN,3901,2243,43.7,-74.38694444,NY
173,MT WEEKS (N PK),3900,623,44.46138889,-71.38222222,NH
174,MOOSE MTN,3897,1388,44.35083333,-74.00361111,NY
175,UNNAMED (LOST POND PK),3891,463,44.16416667,-74.03472222,NY
176,WEST KILL MTN,3890,1240,42.16777778,-74.29027778,NY
177,MT WEEKS (S PK),3885,351,44.44222222,-71.38888889,NH
178,KILBURN MTN,3881,1700,44.30277778,-73.8825,NY
179,BLUE RIDGE,3881,1096,43.62944444,-74.48222222,NY
180,NORTH RIVER MTNS (N PK),3877,1433,44.03527778,-73.9825,NY
181,GOOSE EYE MTN,3870,1380,44.50277778,-71,ME
182,DOUBLETOP MTN,3870,1200,42.0275,-74.52861111,NY
183,CORNELL MTN,3870,620,42.00138889,-74.35722222,NY
184,GRAHAM MTN,3868,898,42.03944444,-74.54972222,NY
185,VOSE SPUR,3862,242,44.10277778,-71.435,NH
186,PANTHER MTN,3861,1194,43.73666667,-74.39194444,NY
187,THE SLEEPERS (E PK),3860,320,43.94666667,-71.42583333,NH
188,SENTINEL MTN,3858,332,44.30611111,-73.85277778,NY
189,JAY PK,3858,2970,44.92444444,-72.52638889,VT
190,WHITE CAP MTN,3856,1006,45.23611111,-70.81833333,ME
191,PANTHER,3855,485,45.26722222,-70.84166667,ME
192,SAWTOOTH MTNS (M PK) (SAWTOOTH 1),3854,1476,44.18861111,-74.12166667,NY
193,RIST MTN,3854,262,44.02777778,-73.98777778,NY
194,PLATEAU MTN,3850,1780,42.13805556,-74.17472222,NY
195,EQUINOX MTN,3850,3060,43.16583333,-73.11805556,VT
196,HOWARD MTN,3848,256,44.15805556,-73.89138889,NY
197,TABLE MTN,3847,657,41.95833333,-74.40527778,NY
198,MENDON PK,3840,290,43.595,-72.84666667,VT
199,BREAD LOAF MTN,3835,1405,44.00194444,-72.94166667,VT
200,MCKENZIE MTN,3832,634,44.33611111,-74.03277778,NY
201,AVALANCHE MTN,3832,404,44.13611111,-73.97,NY
202,LYON MTN (NE PK),3830,2247,44.70305556,-73.86472222,NY
203,TR MTN,3822,328,44.14388889,-73.93583333,NY
204,SUGARLOAF MTN,3810,1200,42.13111111,-74.15083333,NY
205,BIGELOW MTN (THE HORNS S PK),3805,495,45.145,-70.32361111,ME
206,LYON MTN AVERILL PK,3803,353,44.69277778,-73.88138889,NY
207,MT COE,3795,305,45.93361111,-69.00944444,ME
208,COUCHSACHRAGA PK,3792,266,44.09527778,-74.16055556,NY
209,EAST KENNEBAGO MTN,3791,1801,45.12166667,-70.6,ME
210,WITTENBERG MTN,3790,240,42.00805556,-74.3475,NY
211,BALDPATE MTN (E PK),3790,2240,44.60916667,-70.89277778,ME
212,SAWTOOTH MTNS (W PK) (SAWTOOTH 2),3789,492,44.1934,-74.1399,NY
213,BUELL MTN,3789,433,43.71638889,-74.4075,NY
214,BIG JAY,3786,391,44.915,-72.54111111,VT
215,SNOW MTN,3784,1274,45.16916667,-70.82722222,ME
216,MT WILSON,3780,210,44.00472222,-72.92611111,VT
217,BOREAS MTN,3776,1135,44.00305556,-73.88111111,NY
218,KENNEBAGO DIVIDE (N PK),3775,365,45.2225,-70.81611111,ME
219,SCAR RIDGE (W PK),3774,674,44.02916667,-71.59583333,NH
220,ELEPHANT MTN,3772,2062,44.76805556,-70.78222222,ME
221,REDINGTON POND RANGE (M PK),3770,250,45.00777778,-70.39472222,ME
222,DORSET PK,3770,2840,43.30916667,-73.02861111,VT
223,CANNON BALLS (NE PK),3769,349,44.15,-71.71055556,NH
224,WAKELY MTN,3766,1631,43.73694444,-74.51527778,NY
225,MAHOOSUC ARM,3765,235,44.56055556,-70.97861111,ME
226,MT KANCAMAGUS,3763,863,44.01111111,-71.47944444,NH
227,WEST KENNEBAGO MTN (N PK),3750,881,45.12027778,-70.81611111,ME
228,MT ABRAHAM (M PK),3750,340,44.95777778,-70.30472222,ME
229,BLUE MTN,3750,1939,43.87222222,-74.40138889,NY
230,GLASTENBURY MTN,3748,1121,42.97777778,-73.07222222,VT
231,MT LOWELL,3740,600,44.10361111,-71.41861111,NH
232,MT ANDERSON,3740,480,44.1125,-71.41833333,NH
233,SHELBURNE MORIAH MTN,3735,445,44.35305556,-71.09916667,NH
234,DONALDSON MTN (W PK),3734,210,44.15611111,-74.22916667,NY
235,SHREWSBURY PK,3730,640,43.57555556,-72.80638889,VT
236,PANTHER MTN,3730,980,42.05833333,-74.39666667,NY
237,LEWEY MTN,3730,827,43.66444444,-74.4425,NY
238,HUTCHINS MTN MT PILOT,3730,511,44.54805556,-71.455,NH
239,COBURN MTN,3730,2520,45.46861111,-70.12694444,ME
240,BUNNEL MTN (BLUE MTN),3730,1800,44.79138889,-71.47916667,NH
241,BALSAM LAKE MTN,3730,480,42.04555556,-74.595,NY
242,WALLFACE MTN,3727,594,44.13805556,-74.03722222,NY
243,MT DARTMOUTH,3727,720,44.3025,-71.38416667,NH
244,MT BEMIS,3725,265,44.12694444,-71.39416667,NH
245,HENDERSON MTN,3723,820,44.09777778,-74.09805556,NY
246,LONE MTN,3721,291,41.96916667,-74.38972222,NY
247,PANTHER MTN (S PK),3714,230,43.72527778,-74.39333333,NY
248,WEST KENNEBAGO MTN,3713,220,45.10694444,-70.81694444,ME
249,STERLING MTN (WHITE FACE MTN),3713,1543,44.58222222,-72.74027778,VT
250,SUGARLOAF,3710,600,44.74416667,-71.46833333,NH
251,BLACK NUBBLE,3710,920,45.03194444,-70.4475,ME
252,BIG INDIAN MTN,3710,520,42.035,-74.49722222,NY
253,KENNEBAGO DIVIDE (S PK),3705,555,45.20583333,-70.82888889,ME
254,HOFFMAN MTN,3704,1962,43.91138889,-73.81888889,NY
255,ZEALE,3700,280,44.2008,-71.5183,NH
256,MT HUNTINGTON,3700,840,44.0501,-71.4912,NH
257,BARREN MTN,3696,686,45.91916667,-68.98305556,ME
258,SAWTOOTH MTNS (SSE PK) (SAWTOOTH 3),3694,627,44.1717,-74.1078,NY
259,FRIDAY MTN,3694,204,41.98777778,-74.3625,NY
260,MT FIELD (W PK),3691,211,44.18916667,-71.4475,NH
261,RUSK MTN,3690,760,42.20055556,-74.27777778,NY
262,BOLTON MTN,3690,1800,44.44916667,-72.84027778,VT
263,MT ETHAN ALLEN,3688,878,44.29361111,-72.88472222,VT
264,CHENEY COBBLE,3684,584,44.04444444,-73.96527778,NY
265,HURRICANE MTN,3678,1988,44.235,-73.71083333,NY
266,GOOSE EYE MTN (N PK),3675,285,44.51611111,-70.98888889,ME
267,MT DECEPTION (E PK),3671,571,44.29361111,-71.42111111,NH
268,MT ABRAHAM (S PK),3671,261,44.94361111,-70.29083333,ME
269,GARFIELD RIDGE (W PK),3667,227,44.18972222,-71.59583333,NH
270,GENERAL STARK MTN,3662,232,44.18416667,-72.92916667,VT
271,BALDPATE MTN (W PK),3662,232,44.60138889,-70.9025,ME
272,LONG MTN (W PK),3661,241,44.66944444,-71.40277778,NH
273,LONG MTN (M PK),3661,1711,44.6799,-71.3794,NH
274,SADDLEBACK JUNIOR,3655,265,44.95805556,-70.45833333,ME
275,KAATERSKILL HIGH PK,3655,1705,42.16222222,-74.08055556,NY
276,WHITE CAP MTN,3654,2624,45.55444444,-69.24722222,ME
277,TERRACE MTN,3654,613,44.47722222,-71.39583333,NH
278,RUMP MTN,3654,1524,45.20361111,-71.06388889,ME
279,KIBBY MTN,3654,2264,45.41861111,-70.54472222,ME
280,SNOWY MTN (W PK),3652,207,43.69138889,-74.405,NY
281,TWIN MTN,3650,840,42.12555556,-74.12972222,NY
282,THE OWL,3650,300,45.90916667,-68.95861111,ME
283,MADONNA PK,3650,700,44.56138889,-72.75888889,VT
284,EAST KENNEBAGO MTN (W PK),3650,880,45.10194444,-70.63888889,ME
285,CARIBOU MTN (W PK),3650,1240,45.42972222,-70.62361111,ME
286,COW RIDGE,3645,1435,45.19194444,-70.72944444,ME
287,MT PUTNAM (WORCESTER),3642,2472,44.41833333,-72.63888889,VT
288,LITTLE MOOSE MTN,3631,1220,43.67027778,-74.56972222,NY
289,FIR MTN,3630,440,42.0275,-74.46944444,NY
290,BOUNDARY BALD MTN,3630,2002,45.76666667,-70.20416667,ME
291,STUB HILL,3627,1337,45.10666667,-71.09805556,NH
292,CALAMITY MTN,3625,866,44.10305556,-74.00305556,NY
293,MT GRANT,3623,673,44.05194444,-72.92666667,VT
294,BALSAM CAP,3623,253,41.97694444,-74.35777778,NY
295,SCAR RIDGE (E PK),3620,360,44.01916667,-71.56555556,NH
296,MT HITCHCOCK,3620,560,44.07416667,-71.54,NH
297,SUNRISE MTN,3618,354,44.02472222,-73.79083333,NY
298,STEWART MTN,3615,581,44.32611111,-73.85666667,NY
299,SADDLEBACK MTN,3615,1270,44.295,-73.66833333,NY
300,PILOT RIDGE (M PK),3615,325,44.53388889,-71.43777778,NH
301,MUISE MTN,3615,1265,44.7855,-71.3781,NH
302,PILLSBURY MTN,3612,1083,43.58138889,-74.51166667,NY
303,NORTH DOME,3610,1160,42.17361111,-74.34944444,NY
304,NORTH BALDFACE,3610,1260,44.24277778,-71.0875,NH
305,GORE MTN,3610,360,44.77388889,-71.46583333,NH
306,EAGLE MTN,3610,500,42.06166667,-74.51,NY
307,BEARPEN MTN,3610,1700,42.265,-74.47416667,NY
308,BALSAM MTN,3610,253,42.09055556,-74.48833333,NY
309,BURNT HILL,3609,439,45.03555556,-70.28277778,ME
310,PLINY MTN,3606,466,44.41666667,-71.39333333,NH
311,DUN BROOK MTN,3605,1509,43.89777778,-74.32305556,NY
312,BOIL MTN,3601,1111,45.24305556,-70.73611111,ME
313,SLIDE MTN,3592,558,44.27638889,-73.88694444,NY
314,OLD BLUE MTN,3592,620,44.74694444,-70.76611111,ME
315,JAY MTNS,3592,426,44.31083333,-73.66666667,NY
316,CARIBOU MTN (M PK),3591,220,45.43527778,-70.615,ME
317,WEST PK,3590,260,44.75416667,-71.49638889,NH
318,GARFIELD RIDGE (E PK),3590,205,44.19277778,-71.5825,NH
319,BEMIS MTN,3590,320,44.79472222,-70.76861111,ME
320,TUMBLEDOWN MTN,3588,998,45.44916667,-70.47083333,ME
321,MT SNOW,3586,1351,42.95916667,-72.92388889,VT
322,MT HUNGER (N PK),3586,316,44.40083333,-72.64388889,VT
323,INDIAN HEAD MTN,3573,463,42.11638889,-74.115,NY
324,GORE MTN,3573,1870,43.67333333,-74.04888889,NY
325,CHERRY MTN (MT MARTHA),3572,1574,44.33083333,-71.49972222,NH
326,SOUTH BALDFACE,3570,300,44.23083333,-71.07833333,NH
327,MARY MTN,3570,230,44.52833333,-71.42861111,NH
328,JACKSON MTN,3568,1798,44.76222222,-70.52055556,ME
329,MT SUCCESS,3565,675,44.47138889,-71.03972222,NH
330,MT CARLO,3565,415,44.48916667,-71.00861111,ME
331,MT CLOUGH,3561,1261,44.02916667,-71.87277778,NH
332,NOONMARK MTN,3556,784,44.12861111,-73.77277778,NY
333,UNNAMED (BOUNDARY PK DENNISON BOG),3552,259,45.2375,-70.83694444,ME
334,MT SHERRILL,3550,540,42.17555556,-74.37333333,NY
335,MT ROOSEVELT,3550,280,44.02,-72.91833333,VT
336,THE FOOL KILLER,3548,208,43.97138889,-71.42694444,NH
337,BOREAS MTN (N PK),3547,211,44.021,-73.8803,NY
338,FISHING BROOK MTN,3546,505,43.93416667,-74.29527778,NY
339,UNNAMED BDY PK BROWN (N PK),3541,571,45.4025,-70.62194444,ME
340,TRAVELER MTN (THE TRAVELER),3541,2331,46.07277778,-68.845,ME
341,THE CAPTAIN,3540,240,44.08388889,-71.46277778,NH
342,TWIN MTNS,3536,346,45.15194444,-70.825,ME
343,HALCOTT MTN,3530,720,42.18027778,-74.43833333,NY
344,VLY MTN,3529,659,42.24583333,-74.44861111,NY
345,WINDHAM HIGH PK,3524,754,42.31472222,-74.14361111,NY
346,FARR PK,3522,1378,43.80916667,-72.94444444,VT
347,BAKER MTN,3521,2191,45.57111111,-69.39444444,ME
348,MT ADAMS,3520,1043,44.08694444,-74.02611111,NY
349,SABLE MTN,3519,629,44.21472222,-71.09638889,NH
350,DORSET MTN (W PK),3515,545,43.30861111,-73.06416667,VT
351,UNNAMED (UNKNOWN POND PK),3510,400,44.5285,-71.3803,NH
352,UNNAMED (RAIN W PK),3510,420,45.39805556,-70.59805556,ME
353,SAVAGE MTN,3510,1360,44.73194444,-71.545,NH
354,ROCKY MTN,3508,218,41.97277778,-74.37333333,NY
355,LITTLE SANTANONI MTN,3503,469,44.07361111,-74.1675,NY
356,SCAR RIDGE (M PK),3500,240,44.02527778,-71.58083333,NH
357,MT WOLF,3500,920,44.0775,-71.75388889,NH
358,MT CHOCORUA,3500,1280,43.95444444,-71.27388889,NH
359,PITCHOFF MTN,3497,1152,44.23722222,-73.87777778,NY
360,FISHING BROOK RANGE,3494,394,43.9183,-74.3202,NY
361,BLUE RIDGE MTN,3494,378,43.9245,-73.8153,NY
362,WORCESTER MTNS (N PK),3490,440,44.43055556,-72.61277778,VT
363,MILL BROOK RIDGE (E PK),3490,380,42.0525,-74.63333333,NY
364,DIXVILLE PK,3490,900,44.83583333,-71.31861111,NH
365,DOUBLETOP MTN,3489,2079,45.93583333,-69.06166667,ME
366,MT GREYLOCK,3488,2474,42.6374,-73.1662,MA
367,BLUE RIDGE (S PK),3488,269,43.61472222,-74.47805556,NY
368,BLOODROOT MTN,3485,375,43.78555556,-72.93777778,VT
369,MT CLEVELAND,3482,372,44.04611111,-72.90833333,VT
370,SEWARD MTNS (NW PK),3481,210,44.16944444,-74.21611111,NY
371,BLUE RIDGE (E PK),3474,1083,43.7948,-74.4551,NY
372,MT KELSEY,3472,1102,44.80138889,-71.31444444,NH
373,WOODPECKER RIDGE,3470,320,42.04,-74.61777778,NY
374,MAHOOSUC MTN,3470,440,44.54888889,-70.98666667,ME
375,LITTLE JACKSON MTN,3470,420,44.75416667,-70.53611111,ME
376,DRY BROOK RIDGE,3470,860,42.11277778,-74.60472222,NY
377,TWIN MTNS (SW PK),3469,419,45.14305556,-70.84527778,ME
378,MANBURY MTN,3467,210,43.66555556,-74.55361111,NY
379,STAIRS MTN,3463,528,44.155,-71.31888889,NH
380,MULLEN MTN,3463,813,45.97972222,-68.97555556,ME
381,SAWTOOTH MTNS (SW PK) (SAWTOOTH 5),3461,295,44.17638889,-74.13388889,NY
382,PINNACLE RIDGE (N PK),3461,220,44.06027778,-73.86,NY
383,BOUNDARY BALD MTN (E PK),3459,209,45.77277778,-70.17888889,ME
384,WILMINGTON RANGE,3458,391,44.4323,-73.8434,NY
385,MORGAN MTN,3458,1113,44.41861111,-73.85944444,NY
386,CELLAR MTN,3454,433,43.71194444,-74.54277778,NY
387,CARR MTN,3453,1480,43.88472222,-71.84388889,NH
388,PUFFER MTN,3451,1670,43.66138889,-74.2,NY
389,BLUE RIDGE (W PK),3451,370,43.92777778,-73.82972222,NY
390,ROUNDTOP MTN,3450,260,42.1685,-74.095,NY
391,ROUNDTOP,3450,360,42.29388889,-74.49083333,NY
392,FULLING MILL MTN,3450,420,44.53666667,-70.98,ME
393,DEER MTN,3450,1540,45.00472222,-70.92444444,ME
394,UNNAMED (BUMP E PK),3447,417,45.45694444,-70.63361111,ME
395,HAYSTACK MTN,3444,383,42.91361111,-72.91972222,VT
396,WOLF POND MTN,3441,361,43.98916667,-73.87777778,NY
397,EAST MTN,3439,2229,44.66472222,-71.77055556,VT
398,NORTH JAY PK,3438,811,44.9575,-72.53666667,VT
399,PERU PK,3435,1477,43.29444444,-72.93805556,VT
400,MT OJI,3434,324,45.92777778,-69.01583333,ME
401,BULLHEAD MTN,3431,1158,43.68888889,-74.18638889,NY
402,UNNAMED (BUMP),3430,280,45.45444444,-70.64527778,ME
403,STOPPEL POINT,3430,920,42.225,-74.06555556,NY
404,SISK MTN (N PK),3430,440,45.37472222,-70.63027778,ME
405,NORTH PERCY PEAK,3430,800,44.66305556,-71.43555556,NH
406,BELLE AYR MTN,3430,580,42.12861111,-74.51944444,NY
407,SLIDE MTN (N PK),3428,262,44.28277778,-73.88,NY
408,BLUE RIDGE (W PK),3428,446,43.787509,-74.504224,NY
409,HUNTERSFIELD MTN,3423,1493,42.35555556,-74.34638889,NY
410,GLASTENBURY MTN (W PK),3423,413,42.97777778,-73.11027778,VT
411,STUB HILL (N PK),3422,242,45.11833333,-71.1025,NH
412,EAGLE CLIFF,3420,440,44.16861111,-71.67194444,NH
413,UNNAMED (BROWN POND PK),3418,653,43.74333333,-74.41444444,NY
414,SEYMOUR MTN (E PK),3415,315,44.1559,-74.1553,NY
415,SAWTOOTH MTNS (NW PK) (SAWTOOTH 4),3415,446,44.2008,-74.1628,NY
416,MT RESOLUTION,3415,355,44.1475,-71.31444444,NH
417,GLASTENBURY MTN (N PK),3412,576,43.02805556,-73.03166667,VT
418,RICKER MTN,3410,640,44.42055556,-72.82611111,VT
419,BEARPEN MTN (S PK),3410,300,42.24638889,-74.49277778,NY
420,VANDERWHACKER MTN,3409,1686,43.89805556,-74.09638889,NY
421,HALCOTT MTN (N PK),3408,418,42.1975,-74.4175,NY
422,DOLL PK,3408,210,44.94694444,-72.54083333,VT
423,WHITEWALL MTN,3405,305,44.1825,-71.4725,NH
424,SPOTTED MTN (M PK),3401,1571,45.04111111,-70.71861111,ME
425,UNNAMED (SALMON PD E-M PK),3396,689,43.9336,-74.3696,NY
426,SAWTOOTH MTNS (SE PK) (SAWTOOTH 9),3396,220,44.1795,-74.1109,NY
427,SEWARD MTNS (WNW PK),3392,250,44.17361111,-74.22277778,NY
428,ONION HILL,3392,402,45.25305556,-70.72222222,ME
429,TEAPOT MTN,3390,340,44.7475,-71.55666667,NH
430,SPRUCE MTN,3390,280,42.0175,-74.45055556,NY
431,SALMON MTN,3390,880,45.24305556,-71.13388889,NH
432,RICE MTN,3390,1380,44.85277778,-71.24083333,NH
433,MT PISGAH,3390,1048,45.37277778,-70.66361111,ME
434,MORSE MTN,3390,251,44.57638889,-72.75222222,VT
435,BIGELOW MTN (HORNS POND PK),3390,220,45.1425,-70.34388889,ME
436,UNNAMED (SALMON PD E PK),3389,368,43.93277778,-74.33472222,NY
437,BLUE RIDGE (E PK),3389,230,43.63472222,-74.46777778,NY
438,SAWTOOTH MTNS (NE PK) (SAWTOOTH 8),3386,280,44.20333333,-74.09388889,NY
439,MAGALLOWAY MTN,3383,1013,45.06333333,-71.16305556,NH
440,BEAVER KILL RANGE (SW PK),3377,687,41.99361111,-74.59166667,NY
441,MILLEN HILL,3375,255,44.29361111,-71.36527778,NH
442,BIG RANGE,3375,1220,43.58305556,-74.25444444,NY
443,MT TREMONT,3371,1591,44.05333333,-71.3575,NH
444,VLY MTN (S PK),3370,260,42.22916667,-74.43861111,NY
445,SIGNAL MTN,3370,2140,44.20611111,-72.32555556,VT
446,DEWEY MTN,3370,700,44.49361111,-72.82194444,VT
447,CAPE LOOKOFF MTN,3370,1200,43.85555556,-72.97333333,VT
448,CELLAR MTN,3369,348,43.64111111,-74.44583333,NY
449,GILLESPIE PK (WHITE ROCKS MTN),3366,336,43.87138889,-72.97777778,VT
450,MT CARMEL,3365,755,43.77444444,-72.92083333,VT
451,LYON MTN (S PK),3365,375,44.675,-73.895,NY
452,MOOSE MTN (SE PK),3363,240,44.34777778,-73.98694444,NY
453,KEMPSHALL MTN,3363,1640,44.02444444,-74.33,NY
454,MOTHER MYRICK MTN,3361,1091,43.21333333,-73.11694444,VT
455,BAKER MTN (M PK),3361,222,45.55805556,-69.38944444,ME
456,PHELPS MTN (N PK),3360,220,44.17861111,-73.92694444,NY
457,BELVIDERE MTN,3356,1564,44.77305556,-72.55138889,VT
458,WHITCOMB MTN,3354,984,44.74361111,-71.37055556,NH
459,UNNAMED (AUSABLE NO. 4),3353,417,44.25722222,-73.67861111,NY
460,BULLHEAD MTN (N PK),3353,292,43.70166667,-74.18027778,NY
461,WILDCAT MTN (E PK),3350,280,41.98777778,-74.44083333,NY
462,PLATTEKILL MTN (N PK),3350,1780,42.28555556,-74.66388889,NY
463,LITTLE WILDCAT MTN,3350,280,44.27722222,-71.21,NH
464,MT PISGAH,3345,895,42.22083333,-74.73638889,NY
465,LUDLOW MTN (OKEMO MTN),3343,1227,43.40388889,-72.75194444,VT
466,ROUND MTN,3342,952,43.81555556,-72.885,VT
467,WHITCOMB MTN (S PK),3338,308,44.73,-71.37194444,NH
468,COLD HOLLOW MTNS,3337,2165,44.7875,-72.68944444,VT
469,SUNDAY RIVER WHITECAP,3335,985,44.54888889,-70.89722222,ME
470,CHANDLER MTN,3335,565,44.20222222,-71.10638889,NH
471,GORE MTN,3332,1971,44.91972222,-71.79416667,VT
472,MT HITCHCOCK (E PK),3331,211,44.07611111,-71.51472222,NH
473,GLASTENBURY MTN (S PK),3331,561,42.93833333,-73.05805556,VT
474,FLAT MTN,3331,551,43.92861111,-71.46222222,NH
475,SPRUCE PK,3330,340,44.55083333,-72.78361111,VT
476,SLIP MTN,3330,296,44.305,-73.64472222,NY
477,MERRILL MTN,3330,988,45.47611111,-70.68777778,ME
478,LOON LAKE MTNS (M PK),3330,1600,44.55805556,-74.15194444,NY
479,AMPERSAND MTN,3330,1346,44.2347,-74.2027,NY
480,BLUE MTN (W PK),3326,240,44.79027778,-71.50555556,NH
481,NORTH TURNER MTN,3325,1715,45.9725,-68.84444444,ME
482,CARIBOU MTN (E PK),3325,243,45.44416667,-70.6,ME
483,BOYCE MTN,3323,273,43.97361111,-72.94111111,VT
484,UNNAMED (BOUNDARY PK MON 410),3319,219,45.445,-70.65138889,ME
485,JACKSON MTN (N PK),3319,219,44.78083333,-70.52805556,ME
486,NUMBER SIX MTN,3315,1385,45.49416667,-70.40861111,ME
487,COUCHSACHRAGA PK (W PK),3314,220,44.09972222,-74.16972222,NY
488,MT KINEO,3313,1253,43.92916667,-71.79888889,NH
489,DEBAR MTN,3310,1660,44.60333333,-74.22083333,NY
490,BALD MTN,3310,1780,44.76611111,-71.98888889,VT
491,BAKER MTN (S PK),3307,226,45.55138889,-69.39805556,ME
492,MT HUNTINGTON (E PK),3306,206,44.03888889,-71.46944444,NH
493,BLACK MTN,3304,714,44.22527778,-71.15611111,NH
494,SPENCER BALE MTN,3301,571,45.41527778,-70.49888889,ME
495,BEAR MTN,3301,722,43.20083333,-73.16722222,VT
496,TRIPOD MTN,3300,430,44.19861111,-73.73638889,NY
497,WYMAN MTN,3297,263,44.05805556,-73.74527778,NY
498,PINNACLE RIDGE (S PK),3297,220,44.05138889,-73.87027778,NY
499,BIG COOLIDGE MTN,3294,554,44.07944444,-71.64305556,NH
500,MT WORCESTER,3293,403,44.44333333,-72.59222222,VT
501,GOSHEN MTN,3292,262,43.82944444,-72.97138889,VT
502,SOUTH POND MTN,3290,859,43.59055556,-74.22027778,NY
503,SHULTICE MTN,3290,660,42.31861111,-74.51611111,NY
504,ELEVENTH MTN,3290,1076,43.61444444,-74.0725,NY
505,BEAR MTN (W PK),3290,1015,44.45472222,-70.96527778,ME
506,SALT ASH MTN,3286,1196,43.5025,-72.77444444,VT
507,KIBBY RANGE (N PK),3286,876,45.35222222,-70.57694444,ME
508,LILY BAY MTN (E PK),3281,571,45.59055556,-69.41722222,ME
509,BROMLEY,3280,849,43.22777778,-72.94027778,VT
510,CRYSTAL MTN (N PK),3279,1149,44.9375,-71.21027778,NH
511,BLUE RIDGE MTN (S PK),3278,1308,43.67805556,-72.90222222,VT
512,UNNAMED (BOUNDARY POND PK),3277,747,45.27055556,-71.11666667,NH
513,UNNAMED (WINNISOOK LAKE PK),3270,220,42.01777778,-74.42,NY
514,SMART MTN (W PK) (LAYTON PK),3270,640,45.46888889,-70.62861111,ME
515,SISK MTN,3270,420,45.34666667,-70.62861111,ME
516,PLATTEKILL MTN,3270,380,42.26638889,-74.64861111,NY
517,BURKE MTN,3270,1600,44.57055556,-71.89333333,VT
518,KEARSARGE NORTH,3268,1758,44.10583333,-71.09444444,NH
519,BLACK CRESCENT MTN,3264,1070,44.43944444,-71.27111111,NH
520,SADDLE BALL MTN,3257,227,42.6137,-73.1916,MA
521,SQUAW MTN,3254,548,43.72666667,-74.34333333,NY
522,CENTER RIDGE (PEAK OF THE RIDGES),3254,344,46.07416667,-68.86861111,ME
523,MT CRESCENT,3251,781,44.40416667,-71.29472222,NH
524,KITTY COBBLE,3251,801,43.62916667,-74.62277778,NY
525,HAMILTON MTN,3251,1509,43.41166667,-74.36694444,NY
526,UNNAMED PK (CUPSUPTIC POND),3250,763,45.22472222,-70.91611111,ME
527,SLIDE MTN,3250,400,44.55055556,-70.9225,ME
528,SADDLE HILL (E PK),3250,1120,45.34416667,-71.00194444,ME
529,MORESVILLE RANGE (N PK),3250,700,42.37444444,-74.565,NY
530,HAY MTN,3250,280,45.5525,-69.27222222,ME
531,CRANE MTN,3250,1745,43.54472222,-73.96277778,NY
532,SMART MTN,3245,235,45.47277778,-70.61055556,ME
533,UNNAMED PK SALMON PD (W PK),3238,296,43.93416667,-74.40194444,NY
534,SMARTS MTN,3238,2188,43.82555556,-72.03916667,NH
535,DUG MTN,3238,1378,43.5828,-74.346,NY
536,WORTH MTN,3234,784,43.91,-72.96416667,VT
537,SOUTH PERCY PEAK,3234,344,44.65638889,-71.43555556,NH
538,LILY BAY MTN,3234,224,45.59111111,-69.43694444,ME
539,PAYNE MTN,3231,426,43.7225,-74.49527778,NY
540,MT ALTON,3231,623,44.37166667,-73.96722222,NY
541,UNNAMED (NARROW NOTCH PK),3230,740,42.33416667,-74.61666667,NY
542,ROUND MTN (E PK),3230,580,43.80611111,-72.8525,VT
543,RICHMOND MTN,3230,580,42.36722222,-74.27944444,NY
544,ONTEORA MTN,3230,840,42.22222222,-74.16833333,NY
545,GREEN PK (MT AEOLUS),3230,1140,43.24055556,-73.03888889,VT
546,DIAMOND RIDGE,3230,700,45.09194444,-71.13611111,NH
547,CRYSTAL MTN (NW PK),3230,340,44.9723,-71.2297,NH
548,PEAKED MTN,3225,519,44.26555556,-73.7,NY
549,MCINTYRE MTNS (N PK),3225,217,44.16583333,-73.97694444,NY
550,MONGAUP MTN (NE PK),3224,394,41.99,-74.62888889,NY
551,MONASTERY MTN (W PK),3224,854,43.90694444,-72.93861111,VT
552,LITTLE SPRUCE MTN,3222,532,45.53722222,-69.21722222,ME
553,MT CUSHMAN,3221,690,43.95833333,-71.77916667,NH
554,BEAR MTN,3220,1440,44.02944444,-71.30222222,NH
555,UTSAYANTHA MTN,3214,544,42.39888889,-74.59,NY
556,ADAMS MTN,3214,1804,44.04361111,-72.80916667,VT
557,MT DAVIS,3213,663,39.78583333,79.17694444,PA
558,UNNAMED (SENTINEL BM),3211,374,44.26333333,-73.89,NY
559,UNNAMED (HIGH FALLS PK),3211,281,41.99194444,-74.54555556,NY
560,WEST ROYCE MTN,3210,1340,44.30222222,-71.01861111,NH
561,SMITH PK,3210,320,43.57611111,-72.78416667,VT
562,FARMER MTN,3210,660,44.94694444,-70.33416667,ME
563,BIG SPENCER MTN,3210,1920,45.77555556,-69.44361111,ME
564,VAN WYCK MTN,3206,356,41.95222222,-74.43583333,NY
565,PHILADELPHIA PK,3203,633,43.9,-72.88666667,VT
566,MT PAUGUS,3198,978,43.95111111,-71.32944444,NH
567,MOOSE MTN (NE PK),3198,295,44.3596,-73.9929,NY
568,KILBURN MTN (NW PK),3198,250,44.3127,-73.8895,NY
569,NORTH MOAT MTN,3196,1176,44.04305556,-71.215,NH
570,HAYSTACK MTN,3195,587,44.82333333,-72.53861111,VT
571,THREE SLIDE MTN (W PK),3194,424,45.44277778,-70.43194444,ME
572,MT HITCHCOCK (N PK),3194,214,44.08722222,-71.54472222,NH
573,BIGELOW MTN (CRANBERRY PK),3194,744,45.14083333,-70.38083333,ME
574,BIG SQUAW MTN,3194,2124,45.48388889,-69.71194444,ME
575,KNOB LOCK MTN,3192,387,44.20027778,-73.7075,NY
576,BURGESS MTN,3192,545,43.75194444,-74.35694444,NY
577,CAVE MTN,3191,581,44.88388889,-71.26611111,NH
578,VAN DYKE MTN,3190,620,45.49277778,-70.67888889,ME
579,UNNAMED PK (NORTHWEST POND),3190,320,45.31083333,-70.80888889,ME
580,SPOTTED MTN (E PK),3190,340,45.04833333,-70.66638889,ME
581,MT BLUE,3190,1840,44.72805556,-70.3425,ME
582,LOWER AZISCOHOS MTN,3190,1640,44.91416667,-71.0025,ME
583,DEER MTN (S PK),3190,820,45.18972222,-71.22583333,NH
584,BURNT KNOB,3190,300,42.30194444,-74.11972222,NY
585,BLUE MTN (N PK),3190,500,44.82027778,-71.49305556,NH
586,BLACK NUBBLE (W PK),3190,220,45.01638889,-70.46416667,ME
587,NUMBER FIVE MTN,3186,416,45.50111111,-70.38722222,ME
588,CHASE MTN,3186,315,44.24138889,-73.72527778,NY
589,WHEELER MTN,3183,622,44.44861111,-70.90972222,ME
590,LOON LAKE MTNS (E PK),3183,453,44.5614,-74.1346,NY
591,BLACK MTN,3183,1113,45.18694444,-70.65861111,ME
592,TONGUE MTN,3179,394,43.9106,-74.3471,NY
593,SPRUCE LAKE MTN,3179,807,43.5123,-74.6537,NY
594,SNOWY MTN (E PK),3179,207,43.69777778,-74.36638889,NY
595,"LUDLOW MTN, S MTN",3179,768,43.37722222,-72.76444444,VT
596,WEST PK,3178,348,45.545,-69.29638889,ME
597,MONGAUP MTN,3177,627,41.99333333,-74.7,NY
598,UNNAMED (SUNRISE NOTCH PK),3175,830,44.34138889,-73.90777778,NY
599,TEXAS RIDGE,3175,377,43.9013,-73.8466,NY
600,SENECA MTN (S PK),3174,624,44.695,-71.80416667,VT
601,BAG POND MTN,3173,783,45.305,-70.66083333,ME
602,STERLING RANGE (N PK),3172,802,44.61416667,-72.76472222,VT
603,WILDCAT MTN (W PK),3170,260,41.9775,-74.47611111,NY
604,STONEY BROOK MTN,3170,320,45.07055556,-70.37027778,ME
605,SENECA MTN (E PK),3170,320,44.6975,-71.77472222,VT
606,MT ETHAN ALLEN (E PK),3170,230,44.28444444,-72.86472222,VT
607,MONASTERY MTN (E PK),3170,288,43.90333333,-72.91472222,VT
608,CRADLE ROCK RIDGE,3170,380,42.03444444,-74.66194444,NY
609,BURNT ROCK MTN,3170,220,44.2675,-72.89611111,VT
610,CATAMOUNT MTN,3169,1513,44.4596,-73.8723,NY
611,BUTTERFIELD MTN,3167,777,44.18333333,-72.33972222,VT
612,BOUNDARY BALD MTN (W PK),3167,397,45.77916667,-70.24,ME
613,UNNAMED (TWIN LAKES PK),3162,495,43.6111,-74.6275,NY
614,COW RIDGE (S PK),3162,269,45.1725,-70.74472222,ME
615,BLACK MTN,3162,212,44.45638889,-70.90972222,ME
616,ROUND MTN (N PK),3161,371,45.27611111,-70.685,ME
617,UNNAMED (OTTER LAKE PK),3159,689,43.5481,-74.5828,NY
618,UNNAMED (BROWN POND SW PK),3159,226,43.72972222,-74.43222222,NY
619,MONADNOCK MTN,3159,2155,42.86083333,-72.10888889,NH
620,BEAVER MTN,3159,1069,44.88166667,-70.63944444,ME
621,NORTH TRAVELER MTN,3157,607,46.10027778,-68.85555556,ME
622,MT CARDIGAN,3155,1925,43.64916667,-71.91472222,NH
623,WHITE MAN MTN,3150,340,42.28416667,-74.53416667,NY
624,ROUND MTN (M PK),3150,340,45.25972222,-70.67138889,ME
625,PINE ISLAND MTN,3150,580,42.22,-74.33305556,NY
626,OVERLOOK MTN,3150,640,42.085,-74.09333333,NY
627,EAST JEWETT RANGE,3150,860,42.23277778,-74.19861111,NY
628,BOSEBUCK MTN,3150,380,45.11416667,-71.05555556,ME
629,MONADNOCK MTN,3148,1538,44.8975,-71.54527778,VT
630,BRADLEY MTN,3146,302,43.7375,-74.55472222,NY
631,MT MAYO,3143,273,44.46222222,-72.83888889,VT
632,PUZZLE MTN,3142,1372,44.54666667,-70.78888889,ME
633,POPLAR RIDGE,3142,252,44.97222222,-70.44861111,ME
634,MT HEDGEHOG,3140,240,43.9414,-71.3642,NH
635,MT ASCUTNEY,3140,2289,43.44361111,-72.455,VT
636,MT KENT,3137,387,45.23138889,-71.095,NH
637,MT MORRIS,3136,1414,44.15972222,-74.47583333,NY
638,BULL MTN,3136,326,45.1475,-70.87222222,ME
639,PANTHER MTN (E PK),3133,354,43.74222222,-74.37055556,NY
640,UNNAMED PK (LEDGE POND),3130,460,44.91638889,-70.53527778,ME
641,UNNAMED (BOUNDARY PK CUPSUPTIC PD),3130,400,45.24305556,-70.89833333,ME
642,NORTHFIELD MTNS (S PK),3130,380,44.01833333,-72.80972222,VT
643,GLASTENBURY MTN (NE PK),3130,230,43.05,-73.0075,VT
644,BLUE KNOB,3130,800,40.28888889,78.56333333,PA
645,HENDERSON MTN (N PK),3127,217,44.11583333,-74.10138889,NY
646,DUG MTN (S PK),3127,207,43.57666667,-74.34472222,NY
647,PETE GAY MTN,3126,282,43.6913,-74.0439,NY
648,UNNAMED PK (CARIBOU FLOW),3122,532,45.41611111,-70.5725,ME
649,BIG SHANTY MTN,3121,450,45.54833333,-69.19527778,ME
650,UNNAMED PK (READSBORO),3120,850,42.84888889,-72.97,VT
651,COUNTY LINE MTN,3120,709,43.6119,-74.2008,NY
652,MT CRAWFORD,3119,259,44.13666667,-71.33305556,NH
653,EAST ROYCE MTN,3114,504,44.30722222,-71.00611111,ME
654,WOODLAWN MTN,3110,1380,43.3375,-73.09833333,VT
655,STOPPEL POINT (W PK),3110,300,42.22416667,-74.10111111,NY
656,SOUTH TURNER MTN,3110,560,45.94111111,-68.85111111,ME
657,SANDY BAY MTN,3110,1160,45.75416667,-70.39416667,ME
658,RED KILL RIDGE,3110,580,42.22888889,-74.53833333,NY
659,PLATTEKILL MTN,3110,520,42.10722222,-74.08638889,NY
660,PACKSADDLE MTN,3110,500,42.2175,-74.35916667,NY
661,ELEPHANT MTN (E PK),3110,220,44.77972222,-70.75027778,ME
662,COWAN MTN (SW PK),3110,620,42.34,-74.65583333,NY
663,CAVE MTN (E PK),3110,1160,42.28583333,-74.24694444,NY
664,BARKABOOM MTN (E PK),3110,480,42.06194444,-74.70277778,NY
665,ACRA POINT,3110,240,42.29638889,-74.10055556,NY
666,GRASS MTN,3109,2199,43.05277778,-73.22416667,VT
667,SODA RANGE,3106,400,44.2764,-73.7301,NY
668,MT TAMARAC,3103,307,44.3268,-74.0204,NY
669,BIG SPRUCE MTN,3103,476,45.53222222,-69.24694444,ME
670,BLUE RIDGE (N PK),3102,372,44.95583333,-71.24694444,NH
671,UNNAMED (WHITE BIRCH LAKE PK),3100,847,43.4682,-74.5759,NY
672,ROUND MTN,3100,689,44.1318,-73.7518,NY
673,MT ANDREW,3100,794,44.0573,-74.0935,NY
674,MT TUCKER (W PK),3097,687,44.9413,-71.1661,NH
675,MT RANDOLPH (N PK),3097,292,44.3968,-71.3166,NH
676,BALDHEAD MTN (S PK),3097,467,44.8224,-71.3671,NH
677,HOUGHTON MTN,3095,698,42.81888889,-73.08555556,VT
678,SWART MTN,3094,328,43.3971,-74.3812,NY
679,UNNAMED PK (BRANCH POND),3090,320,43.06638889,-73.01694444,VT
680,TUMBLEDOWN MTN (N PK),3090,300,44.75,-70.54916667,ME
681,ROSE MTN,3090,780,42.15055556,-74.43833333,NY
682,HIGH POINT,3090,1420,41.92472222,-74.28805556,NY
683,GLADE MTN,3089,339,39.79027778,79.20333333,PA
684,KIBBY MTN (E PK),3088,418,45.33472222,-70.53666667,ME
685,KNOX MTN (M PK),3086,696,44.16527778,-72.35666667,VT
686,LOON LAKE MTNS (N PK),3082,242,44.56388889,-74.16333333,NY
687,MT PISGAH,3081,471,44.99555556,-71.21305556,NH
688,UNNAMED PK (BARKER POND),3070,811,45.30583333,-71.03444444,ME
689,ROUND TOP,3070,300,42.27138889,-74.68361111,NY
690,LITTLE SPENCER MTN,3070,1780,45.75833333,-69.53277778,ME
691,LITTLE BIGELOW MTN,3070,860,45.13444444,-70.21722222,ME
692,IRISH MTN,3070,240,42.33555556,-74.52638889,NY
693,EAST HAVEN MTN,3070,860,44.62138889,-71.83333333,VT
694,CHURCHILL MTN,3070,540,42.38861111,-74.61055556,NY
695,RICE MTN,3066,216,44.05638889,-72.80166667,VT
696,LOON MTN (N PK),3065,205,44.03611111,-71.62166667,NH
697,BALD CAP,3065,735,44.44944444,-71.10305556,NH
698,MT HITCHCOCK (W PK),3064,224,44.07194444,-71.55333333,NH
699,WOLF CUB GORDON POND PEAK,3063,283,44.07166667,-71.74,NH
700,UNNAMED (MOSS GLEN FALLS),3062,212,44.03194444,-72.88555556,VT
701,MONGAUP MTN (E PK),3062,292,41.985,-74.64888889,NY
702,UNNAMED (DEEP LAKE PK),3061,256,43.62333333,-74.65222222,NY
703,UNNAMED (CELLAR BROOK PK),3061,207,43.71722222,-74.57055556,NY
704,MT TABOR,3061,237,43.28194444,-72.96694444,VT
705,BAILEY HILL,3061,1182,43.9109,-73.9025,NY
706,UNNAMED (WEST LAKE PK),3058,236,43.60666667,-74.64527778,NY
707,SCARFACE,3057,1105,44.265,-74.07444444,NY
708,WASHBURN RIDGE,3054,840,43.9338,-73.8718,NY
709,NORTH DOUBLEHEAD,3053,963,44.16777778,-71.13055556,NH
710,DENMAN MTN,3053,763,41.90277778,-74.53972222,NY
711,UNNAMED (SHOAL POND PK),3051,511,44.1497,-71.4807,NH
712,UMPIRE MTN,3051,981,44.56972222,-71.9575,VT
713,T LAKE MTN,3051,561,43.4472,-74.5773,NY
714,WOODHULL MTN,3050,400,41.94555556,-74.46416667,NY
715,TWIN PKS,3050,784,45.31333333,-70.98972222,ME
716,MORESVILLE RANGE (S PK),3050,300,42.35555556,-74.56611111,NY
717,CAVE MTN (W PK),3050,240,42.28444444,-74.26472222,NY
718,BLUE RIDGE MTN (N PK),3050,205,43.69194444,-72.91277778,VT
719,BALD HILL,3050,260,44.31916667,-72.90777778,VT
720,SENECA MTN (N PK),3049,218,44.71277778,-71.80166667,VT
721,KIBBY RANGE (S PK),3043,353,45.32583333,-70.58527778,ME
722,STONY CREEK MTN,3041,958,44.2214,-74.2658,NY
723,MOOSE MTN,3041,691,45.47444444,-70.58027778,ME
724,BEAR MTN (E PK),3041,316,44.45722222,-70.93444444,ME
725,PEAKED MTN,3037,507,45.455,-70.53472222,ME
726,BALD PK,3035,262,44.1598,-73.6656,NY
727,NIAGARA MTN,3034,1246,44.0015,-73.7653,NY
728,SPRUCE PK,3033,463,43.04444444,-73.21027778,VT
729,BOARDMAN RIDGE,3032,522,39.76305556,79.24777778,PA
730,UNNAMED BDY PK (MASS. BOG),3030,468,45.32805556,-70.81305556,ME
731,SPRUCE MTN,3030,860,44.23444444,-72.35555556,VT
732,RED RIDGE,3030,840,44.61,-71.02277778,ME
733,POTATO NUBBLE,3030,520,44.97805556,-70.5025,ME
734,MT WARREN (SE PK),3030,440,42.30583333,-74.69166667,NY
735,MT PISGAH (S PK),3030,240,42.19888889,-74.72361111,NY
736,LEROY PEAK,3030,340,45.44805556,-70.50138889,ME
737,BRAINTREE MTN (N PK),3030,640,43.95305556,-72.78583333,VT
738,ROUND MTN (E PK),3027,497,45.25805556,-70.65777778,ME
739,SQUAWS BOSOM,3026,516,45.93333333,-69.08638889,ME
740,UNNAMED (STAMFORD),3025,535,42.78666667,-73.1225,VT
741,UNNAMED (TELEPHONE GAP),3022,712,43.75111111,-72.88833333,VT
742,SQUAW MTN (E PK),3022,266,43.72138889,-74.33444444,NY
743,UNNAMED PK NORTHRUP LAKE,3021,649,43.5775,-74.6699,NY
744,THREE PONDS MTN,3021,1351,43.3007,-74.3701,NY
745,LONG MTN,3021,891,44.59111111,-70.8175,ME
746,FISHING BROOK MTN (W PK),3021,226,43.93277778,-74.32416667,NY
747,NIPPLETOP MTN,3018,568,43.9919,-73.7533,NY
748,NORTH JAY PK (SW PK),3015,407,44.94083333,-72.57666667,VT
749,LITTLE ROCKY MTN,3015,945,41.91833333,-74.33277778,NY
750,GILPIN MTN,3015,781,44.90861111,-72.49527778,VT
751,VAN DORRIEN MTN,3011,863,44.2223,-74.1708,NY
752,NUMBER SIX MTN (S PK),3011,481,45.47944444,-70.42277778,ME
753,UNNAMED (SILVER HOLLOW PK),3010,660,42.1225,-74.2275,NY
754,SPOTTED MTN (NW PK),3010,400,45.05333333,-70.75444444,ME
755,SPOTTED MTN (N PK),3010,300,45.05527778,-70.74222222,ME
756,OLD CLUMP,3010,300,42.30583333,-74.59194444,NY
757,MT DURBAN,3010,665,45.29527778,-71.10527778,NH
758,LYON MTN (NW PK),3010,240,44.70611111,-73.89666667,NY
759,HUBBELL HILL,3010,640,42.21583333,-74.64916667,NY
760,HOOSAC RANGE,3010,1104,42.75777778,-73.02666667,VT
761,BOTTLE MTN,3010,540,45.18333333,-70.89666667,ME
762,MACOMBER MTN,3005,1067,43.5108,-74.2391,NY
763,MT ROSEBROOK,3004,264,44.24305556,-71.47166667,NH
764,UNNAMED PK L-D POND,3002,387,43.42416667,-74.60416667,NY
765,STREET MTN (SW PK),3002,296,44.16777778,-74.07222222,NY
766,WEST CANADA MTN,3001,669,43.5243,-74.7248,NY
767,HEIGHT OF LAND MTN,3001,511,43.6521,-74.0598,NY
