<kml xmlns="http://www.opengis.net/kml/2.2">
  <Document id="NH-100-Highest">
    <name>NH-100-Highest</name>
    <description>pinmap for NH-100-Highest</description>
    <visibility>1</visibility>
    <Folder id="NH-100-Highest">
      <name>NH-100-Highest</name>
      <description>kml map of list points for NH-100-Highest</description>
      <visibility>1</visibility>
      <Placemark id="MT WASHINGTON">
        <name>MT WASHINGTON</name>
        <description>Elevation: 6288
Latitude: 44.27055556
Longitude: -71.30388889
Name: MT WASHINGTON
Prominence: 6153
Rank: 1
State: NH
</description>
        <visibility>1</visibility>
        <Point>
          <coordinates>-71.303889,44.270556</coordinates>
        </Point>
      </Placemark>
      <Placemark id="MT ADAMS">
        <name>MT ADAMS</name>
        <description>Elevation: 5774
Latitude: 44.32055556
Longitude: -71.29194444
Name: MT ADAMS
Prominence: 
Rank: 2
State: NH
</description>
        <visibility>1</visibility>
        <Point>
          <coordinates>-71.291944,44.320556</coordinates>
        </Point>
      </Placemark>
      <Placemark id="MT JEFFERSON">
        <name>MT JEFFERSON</name>
        <description>Elevation: 5712
Latitude: 44.30416667
Longitude: -71.31722222
Name: MT JEFFERSON
Prominence: 
Rank: 3
State: NH
</description>
        <visibility>1</visibility>
        <Point>
          <coordinates>-71.317222,44.304167</coordinates>
        </Point>
      </Placemark>
      <Placemark id="MT MONROE">
        <name>MT MONROE</name>
        <description>Elevation: 5384
Latitude: 44.25527778
Longitude: -71.32166667
Name: MT MONROE
Prominence: 
Rank: 4
State: NH
</description>
        <visibility>1</visibility>
        <Point>
          <coordinates>-71.321667,44.255278</coordinates>
        </Point>
      </Placemark>
      <Placemark id="MT MADISON">
        <name>MT MADISON</name>
        <description>Elevation: 5367
Latitude: 44.32861111
Longitude: -71.27722222
Name: MT MADISON
Prominence: 
Rank: 5
State: NH
</description>
        <visibility>1</visibility>
        <Point>
          <coordinates>-71.277222,44.328611</coordinates>
        </Point>
      </Placemark>
      <Placemark id="MT LAFAYETTE">
        <name>MT LAFAYETTE</name>
        <description>Elevation: 5260
Latitude: 44.16055556
Longitude: -71.645
Name: MT LAFAYETTE
Prominence: 3360
Rank: 6
State: NH
</description>
        <visibility>1</visibility>
        <Point>
          <coordinates>-71.645000,44.160556</coordinates>
        </Point>
      </Placemark>
      <Placemark id="SOUTH TWIN MTN">
        <name>SOUTH TWIN MTN</name>
        <description>Elevation: 4902
Latitude: 44.1875
Longitude: -71.55527778
Name: SOUTH TWIN MTN
Prominence: 1522
Rank: 7
State: NH
</description>
        <visibility>1</visibility>
        <Point>
          <coordinates>-71.555278,44.187500</coordinates>
        </Point>
      </Placemark>
      <Placemark id="CARTER DOME">
        <name>CARTER DOME</name>
        <description>Elevation: 4832
Latitude: 44.26722222
Longitude: -71.17972222
Name: CARTER DOME
Prominence: 2821
Rank: 8
State: NH
</description>
        <visibility>1</visibility>
        <Point>
          <coordinates>-71.179722,44.267222</coordinates>
        </Point>
      </Placemark>
      <Placemark id="MT MOOSILAUKE">
        <name>MT MOOSILAUKE</name>
        <description>Elevation: 4802
Latitude: 44.02333333
Longitude: -71.83194444
Name: MT MOOSILAUKE
Prominence: 2960
Rank: 9
State: NH
</description>
        <visibility>1</visibility>
        <Point>
          <coordinates>-71.831944,44.023333</coordinates>
        </Point>
      </Placemark>
      <Placemark id="MT EISENHOWER">
        <name>MT EISENHOWER</name>
        <description>Elevation: 4780
Latitude: 44.24055556
Longitude: -71.35083333
Name: MT EISENHOWER
Prominence: 
Rank: 10
State: NH
</description>
        <visibility>1</visibility>
        <Point>
          <coordinates>-71.350833,44.240556</coordinates>
        </Point>
      </Placemark>
      <Placemark id="NORTH TWIN MTN">
        <name>NORTH TWIN MTN</name>
        <description>Elevation: 4761
Latitude: 44.2025
Longitude: -71.55833333
Name: NORTH TWIN MTN
Prominence: 
Rank: 11
State: NH
</description>
        <visibility>1</visibility>
        <Point>
          <coordinates>-71.558333,44.202500</coordinates>
        </Point>
      </Placemark>
      <Placemark id="MT CARRIGAIN">
        <name>MT CARRIGAIN</name>
        <description>Elevation: 4700
Latitude: 44.09361111
Longitude: -71.4475
Name: MT CARRIGAIN
Prominence: 2240
Rank: 12
State: NH
</description>
        <visibility>1</visibility>
        <Point>
          <coordinates>-71.447500,44.093611</coordinates>
        </Point>
      </Placemark>
      <Placemark id="MT BOND">
        <name>MT BOND</name>
        <description>Elevation: 4698
Latitude: 44.15305556
Longitude: -71.53166667
Name: MT BOND
Prominence: 
Rank: 13
State: NH
</description>
        <visibility>1</visibility>
        <Point>
          <coordinates>-71.531667,44.153056</coordinates>
        </Point>
      </Placemark>
      <Placemark id="MIDDLE CARTER MTN">
        <name>MIDDLE CARTER MTN</name>
        <description>Elevation: 4610
Latitude: 44.30305556
Longitude: -71.16833333
Name: MIDDLE CARTER MTN
Prominence: 
Rank: 14
State: NH
</description>
        <visibility>1</visibility>
        <Point>
          <coordinates>-71.168333,44.303056</coordinates>
        </Point>
      </Placemark>
      <Placemark id="MT GUYOT">
        <name>MT GUYOT</name>
        <description>Elevation: 4580
Latitude: 44.16805556
Longitude: -71.53444444
Name: MT GUYOT
Prominence: 
Rank: 15
State: NH
</description>
        <visibility>1</visibility>
        <Point>
          <coordinates>-71.534444,44.168056</coordinates>
        </Point>
      </Placemark>
      <Placemark id="MT BOND (W PK)">
        <name>MT BOND (W PK)</name>
        <description>Elevation: 4540
Latitude: 44.15472222
Longitude: -71.54388889
Name: MT BOND (W PK)
Prominence: 
Rank: 16
State: NH
</description>
        <visibility>1</visibility>
        <Point>
          <coordinates>-71.543889,44.154722</coordinates>
        </Point>
      </Placemark>
      <Placemark id="MT GARFIELD">
        <name>MT GARFIELD</name>
        <description>Elevation: 4500
Latitude: 44.18722222
Longitude: -71.61111111
Name: MT GARFIELD
Prominence: 
Rank: 17
State: NH
</description>
        <visibility>1</visibility>
        <Point>
          <coordinates>-71.611111,44.187222</coordinates>
        </Point>
      </Placemark>
      <Placemark id="MT LIBERTY">
        <name>MT LIBERTY</name>
        <description>Elevation: 4459
Latitude: 44.11583333
Longitude: -71.64277778
Name: MT LIBERTY
Prominence: 
Rank: 18
State: NH
</description>
        <visibility>1</visibility>
        <Point>
          <coordinates>-71.642778,44.115833</coordinates>
        </Point>
      </Placemark>
      <Placemark id="SOUTH CARTER MTN">
        <name>SOUTH CARTER MTN</name>
        <description>Elevation: 4430
Latitude: 44.28972222
Longitude: -71.17694444
Name: SOUTH CARTER MTN
Prominence: 
Rank: 19
State: NH
</description>
        <visibility>1</visibility>
        <Point>
          <coordinates>-71.176944,44.289722</coordinates>
        </Point>
      </Placemark>
      <Placemark id="WILDCAT MTN">
        <name>WILDCAT MTN</name>
        <description>Elevation: 4422
Latitude: 44.25916667
Longitude: -71.20222222
Name: WILDCAT MTN
Prominence: 
Rank: 20
State: NH
</description>
        <visibility>1</visibility>
        <Point>
          <coordinates>-71.202222,44.259167</coordinates>
        </Point>
      </Placemark>
      <Placemark id="MT HANCOCK">
        <name>MT HANCOCK</name>
        <description>Elevation: 4420
Latitude: 44.08333333
Longitude: -71.49388889
Name: MT HANCOCK
Prominence: 
Rank: 21
State: NH
</description>
        <visibility>1</visibility>
        <Point>
          <coordinates>-71.493889,44.083333</coordinates>
        </Point>
      </Placemark>
      <Placemark id="KINSMAN MTN (S PK)">
        <name>KINSMAN MTN (S PK)</name>
        <description>Elevation: 4358
Latitude: 44.12277778
Longitude: -71.73694444
Name: KINSMAN MTN (S PK)
Prominence: 2418
Rank: 22
State: NH
</description>
        <visibility>1</visibility>
        <Point>
          <coordinates>-71.736944,44.122778</coordinates>
        </Point>
      </Placemark>
      <Placemark id="MT OSCEOLA">
        <name>MT OSCEOLA</name>
        <description>Elevation: 4340
Latitude: 44.00166667
Longitude: -71.53638889
Name: MT OSCEOLA
Prominence: 2040
Rank: 23
State: NH
</description>
        <visibility>1</visibility>
        <Point>
          <coordinates>-71.536389,44.001667</coordinates>
        </Point>
      </Placemark>
      <Placemark id="MT FIELD">
        <name>MT FIELD</name>
        <description>Elevation: 4340
Latitude: 44.19611111
Longitude: -71.43388889
Name: MT FIELD
Prominence: 1702
Rank: 24
State: NH
</description>
        <visibility>1</visibility>
        <Point>
          <coordinates>-71.433889,44.196111</coordinates>
        </Point>
      </Placemark>
      <Placemark id="MT FLUME">
        <name>MT FLUME</name>
        <description>Elevation: 4328
Latitude: 44.10861111
Longitude: -71.62861111
Name: MT FLUME
Prominence: 
Rank: 25
State: NH
</description>
        <visibility>1</visibility>
        <Point>
          <coordinates>-71.628611,44.108611</coordinates>
        </Point>
      </Placemark>
      <Placemark id="MT PIERCE">
        <name>MT PIERCE</name>
        <description>Elevation: 4310
Latitude: 44.22694444
Longitude: -71.36611111
Name: MT PIERCE
Prominence: 
Rank: 26
State: NH
</description>
        <visibility>1</visibility>
        <Point>
          <coordinates>-71.366111,44.226944</coordinates>
        </Point>
      </Placemark>
      <Placemark id="KINSMAN MTN (N PK)">
        <name>KINSMAN MTN (N PK)</name>
        <description>Elevation: 4293
Latitude: 44.13333333
Longitude: -71.73722222
Name: KINSMAN MTN (N PK)
Prominence: 
Rank: 27
State: NH
</description>
        <visibility>1</visibility>
        <Point>
          <coordinates>-71.737222,44.133333</coordinates>
        </Point>
      </Placemark>
      <Placemark id="MT WILLEY">
        <name>MT WILLEY</name>
        <description>Elevation: 4285
Latitude: 44.18333333
Longitude: -71.42166667
Name: MT WILLEY
Prominence: 
Rank: 28
State: NH
</description>
        <visibility>1</visibility>
        <Point>
          <coordinates>-71.421667,44.183333</coordinates>
        </Point>
      </Placemark>
      <Placemark id="MT BOND, THE CLIFFS">
        <name>MT BOND, THE CLIFFS</name>
        <description>Elevation: 4265
Latitude: 44.14055556
Longitude: -71.54111111
Name: MT BOND, THE CLIFFS
Prominence: 
Rank: 29
State: NH
</description>
        <visibility>1</visibility>
        <Point>
          <coordinates>-71.541111,44.140556</coordinates>
        </Point>
      </Placemark>
      <Placemark id="ZEALAND RIDGE">
        <name>ZEALAND RIDGE</name>
        <description>Elevation: 4260
Latitude: 44.17972222
Longitude: -71.52194444
Name: ZEALAND RIDGE
Prominence: 
Rank: 30
State: NH
</description>
        <visibility>1</visibility>
        <Point>
          <coordinates>-71.521944,44.179722</coordinates>
        </Point>
      </Placemark>
      <Placemark id="MT TRIPYRAMID (N PK)">
        <name>MT TRIPYRAMID (N PK)</name>
        <description>Elevation: 4180
Latitude: 43.97305556
Longitude: -71.44333333
Name: MT TRIPYRAMID (N PK)
Prominence: 
Rank: 31
State: NH
</description>
        <visibility>1</visibility>
        <Point>
          <coordinates>-71.443333,43.973056</coordinates>
        </Point>
      </Placemark>
      <Placemark id="MT CABOT">
        <name>MT CABOT</name>
        <description>Elevation: 4170
Latitude: 44.50583333
Longitude: -71.41472222
Name: MT CABOT
Prominence: 2665
Rank: 32
State: NH
</description>
        <visibility>1</visibility>
        <Point>
          <coordinates>-71.414722,44.505833</coordinates>
        </Point>
      </Placemark>
      <Placemark id="MT OSCEOLA (E PK)">
        <name>MT OSCEOLA (E PK)</name>
        <description>Elevation: 4156
Latitude: 44.00611111
Longitude: -71.52111111
Name: MT OSCEOLA (E PK)
Prominence: 
Rank: 33
State: NH
</description>
        <visibility>1</visibility>
        <Point>
          <coordinates>-71.521111,44.006111</coordinates>
        </Point>
      </Placemark>
      <Placemark id="MT TRIPYRAMID (M PK)">
        <name>MT TRIPYRAMID (M PK)</name>
        <description>Elevation: 4140
Latitude: 43.96444444
Longitude: -71.44055556
Name: MT TRIPYRAMID (M PK)
Prominence: 
Rank: 34
State: NH
</description>
        <visibility>1</visibility>
        <Point>
          <coordinates>-71.440556,43.964444</coordinates>
        </Point>
      </Placemark>
      <Placemark id="CANNON MTN">
        <name>CANNON MTN</name>
        <description>Elevation: 4100
Latitude: 44.15666667
Longitude: -71.69944444
Name: CANNON MTN
Prominence: 
Rank: 35
State: NH
</description>
        <visibility>1</visibility>
        <Point>
          <coordinates>-71.699444,44.156667</coordinates>
        </Point>
      </Placemark>
      <Placemark id="WILDCAT RIDGE (D PK)">
        <name>WILDCAT RIDGE (D PK)</name>
        <description>Elevation: 4070
Latitude: 44.24916667
Longitude: -71.22416667
Name: WILDCAT RIDGE (D PK)
Prominence: 
Rank: 36
State: NH
</description>
        <visibility>1</visibility>
        <Point>
          <coordinates>-71.224167,44.249167</coordinates>
        </Point>
      </Placemark>
      <Placemark id="MT HALE">
        <name>MT HALE</name>
        <description>Elevation: 4054
Latitude: 44.22166667
Longitude: -71.5125
Name: MT HALE
Prominence: 
Rank: 37
State: NH
</description>
        <visibility>1</visibility>
        <Point>
          <coordinates>-71.512500,44.221667</coordinates>
        </Point>
      </Placemark>
      <Placemark id="MT JACKSON">
        <name>MT JACKSON</name>
        <description>Elevation: 4052
Latitude: 44.20305556
Longitude: -71.37583333
Name: MT JACKSON
Prominence: 
Rank: 38
State: NH
</description>
        <visibility>1</visibility>
        <Point>
          <coordinates>-71.375833,44.203056</coordinates>
        </Point>
      </Placemark>
      <Placemark id="MT TOM">
        <name>MT TOM</name>
        <description>Elevation: 4051
Latitude: 44.21027778
Longitude: -71.44666667
Name: MT TOM
Prominence: 
Rank: 39
State: NH
</description>
        <visibility>1</visibility>
        <Point>
          <coordinates>-71.446667,44.210278</coordinates>
        </Point>
      </Placemark>
      <Placemark id="MT MORIAH">
        <name>MT MORIAH</name>
        <description>Elevation: 4049
Latitude: 44.34027778
Longitude: -71.13222222
Name: MT MORIAH
Prominence: 
Rank: 40
State: NH
</description>
        <visibility>1</visibility>
        <Point>
          <coordinates>-71.132222,44.340278</coordinates>
        </Point>
      </Placemark>
      <Placemark id="MT PASSACONAWAY">
        <name>MT PASSACONAWAY</name>
        <description>Elevation: 4043
Latitude: 43.95472222
Longitude: -71.38111111
Name: MT PASSACONAWAY
Prominence: 
Rank: 41
State: NH
</description>
        <visibility>1</visibility>
        <Point>
          <coordinates>-71.381111,43.954722</coordinates>
        </Point>
      </Placemark>
      <Placemark id="OWLS HEAD">
        <name>OWLS HEAD</name>
        <description>Elevation: 4025
Latitude: 44.14416667
Longitude: -71.60555556
Name: OWLS HEAD
Prominence: 
Rank: 42
State: NH
</description>
        <visibility>1</visibility>
        <Point>
          <coordinates>-71.605556,44.144167</coordinates>
        </Point>
      </Placemark>
      <Placemark id="GALEHEAD">
        <name>GALEHEAD</name>
        <description>Elevation: 4024
Latitude: 44.185
Longitude: -71.57388889
Name: GALEHEAD
Prominence: 
Rank: 43
State: NH
</description>
        <visibility>1</visibility>
        <Point>
          <coordinates>-71.573889,44.185000</coordinates>
        </Point>
      </Placemark>
      <Placemark id="MT WHITEFACE">
        <name>MT WHITEFACE</name>
        <description>Elevation: 4020
Latitude: 43.93666667
Longitude: -71.40805556
Name: MT WHITEFACE
Prominence: 
Rank: 44
State: NH
</description>
        <visibility>1</visibility>
        <Point>
          <coordinates>-71.408056,43.936667</coordinates>
        </Point>
      </Placemark>
      <Placemark id="MT WAUMBEK">
        <name>MT WAUMBEK</name>
        <description>Elevation: 4006
Latitude: 44.4325
Longitude: -71.41777778
Name: MT WAUMBEK
Prominence: 
Rank: 45
State: NH
</description>
        <visibility>1</visibility>
        <Point>
          <coordinates>-71.417778,44.432500</coordinates>
        </Point>
      </Placemark>
      <Placemark id="MT ISOLATION">
        <name>MT ISOLATION</name>
        <description>Elevation: 4004
Latitude: 44.21472222
Longitude: -71.31
Name: MT ISOLATION
Prominence: 
Rank: 46
State: NH
</description>
        <visibility>1</visibility>
        <Point>
          <coordinates>-71.310000,44.214722</coordinates>
        </Point>
      </Placemark>
      <Placemark id="MT TECUMSEH">
        <name>MT TECUMSEH</name>
        <description>Elevation: 4003
Latitude: 43.96638889
Longitude: -71.55694444
Name: MT TECUMSEH
Prominence: 1743
Rank: 47
State: NH
</description>
        <visibility>1</visibility>
        <Point>
          <coordinates>-71.556944,43.966389</coordinates>
        </Point>
      </Placemark>
      <Placemark id="SANDWICH MTN">
        <name>SANDWICH MTN</name>
        <description>Elevation: 3980
Latitude: 43.90027778
Longitude: -71.49861111
Name: SANDWICH MTN
Prominence: 
Rank: 48
State: NH
</description>
        <visibility>1</visibility>
        <Point>
          <coordinates>-71.498611,43.900278</coordinates>
        </Point>
      </Placemark>
      <Placemark id="THE BULGE">
        <name>THE BULGE</name>
        <description>Elevation: 3950
Latitude: 44.51444444
Longitude: -71.40861111
Name: THE BULGE
Prominence: 
Rank: 49
State: NH
</description>
        <visibility>1</visibility>
        <Point>
          <coordinates>-71.408611,44.514444</coordinates>
        </Point>
      </Placemark>
      <Placemark id="MT NANCY">
        <name>MT NANCY</name>
        <description>Elevation: 3926
Latitude: 44.12222222
Longitude: -71.405
Name: MT NANCY
Prominence: 
Rank: 50
State: NH
</description>
        <visibility>1</visibility>
        <Point>
          <coordinates>-71.405000,44.122222</coordinates>
        </Point>
      </Placemark>
      <Placemark id="THE HORN">
        <name>THE HORN</name>
        <description>Elevation: 3905
Latitude: 44.51777778
Longitude: -71.40055556
Name: THE HORN
Prominence: 
Rank: 51
State: NH
</description>
        <visibility>1</visibility>
        <Point>
          <coordinates>-71.400556,44.517778</coordinates>
        </Point>
      </Placemark>
      <Placemark id="MT WEEKS (N PK)">
        <name>MT WEEKS (N PK)</name>
        <description>Elevation: 3901
Latitude: 44.46138889
Longitude: -71.38222222
Name: MT WEEKS (N PK)
Prominence: 
Rank: 52
State: NH
</description>
        <visibility>1</visibility>
        <Point>
          <coordinates>-71.382222,44.461389</coordinates>
        </Point>
      </Placemark>
      <Placemark id="MT WEEKS (S PK)">
        <name>MT WEEKS (S PK)</name>
        <description>Elevation: 3885
Latitude: 44.44222222
Longitude: -71.38888889
Name: MT WEEKS (S PK)
Prominence: 
Rank: 53
State: NH
</description>
        <visibility>1</visibility>
        <Point>
          <coordinates>-71.388889,44.442222</coordinates>
        </Point>
      </Placemark>
      <Placemark id="THE SLEEPERS (W PK)">
        <name>THE SLEEPERS (W PK)</name>
        <description>Elevation: 3881
Latitude: 43.95416667
Longitude: -71.43583333
Name: THE SLEEPERS (W PK)
Prominence: 
Rank: 54
State: NH
</description>
        <visibility>1</visibility>
        <Point>
          <coordinates>-71.435833,43.954167</coordinates>
        </Point>
      </Placemark>
      <Placemark id="VOSE SPUR">
        <name>VOSE SPUR</name>
        <description>Elevation: 3862
Latitude: 44.10277778
Longitude: -71.435
Name: VOSE SPUR
Prominence: 
Rank: 55
State: NH
</description>
        <visibility>1</visibility>
        <Point>
          <coordinates>-71.435000,44.102778</coordinates>
        </Point>
      </Placemark>
      <Placemark id="THE SLEEPERS (E PK)">
        <name>THE SLEEPERS (E PK)</name>
        <description>Elevation: 3860
Latitude: 43.94666667
Longitude: -71.42583333
Name: THE SLEEPERS (E PK)
Prominence: 
Rank: 56
State: NH
</description>
        <visibility>1</visibility>
        <Point>
          <coordinates>-71.425833,43.946667</coordinates>
        </Point>
      </Placemark>
      <Placemark id="PEAK ABOVE THE NUBBLE">
        <name>PEAK ABOVE THE NUBBLE</name>
        <description>Elevation: 3813
Latitude: 44.22277778
Longitude: -71.56194444
Name: PEAK ABOVE THE NUBBLE
Prominence: 
Rank: 57
State: NH
</description>
        <visibility>1</visibility>
        <Point>
          <coordinates>-71.561944,44.222778</coordinates>
        </Point>
      </Placemark>
      <Placemark id="SCAR RIDGE (W PK)">
        <name>SCAR RIDGE (W PK)</name>
        <description>Elevation: 3774
Latitude: 44.02916667
Longitude: -71.59583333
Name: SCAR RIDGE (W PK)
Prominence: 
Rank: 58
State: NH
</description>
        <visibility>1</visibility>
        <Point>
          <coordinates>-71.595833,44.029167</coordinates>
        </Point>
      </Placemark>
      <Placemark id="CANNON BALLS (NE PK)">
        <name>CANNON BALLS (NE PK)</name>
        <description>Elevation: 3769
Latitude: 44.15
Longitude: -71.71055556
Name: CANNON BALLS (NE PK)
Prominence: 
Rank: 59
State: NH
</description>
        <visibility>1</visibility>
        <Point>
          <coordinates>-71.710556,44.150000</coordinates>
        </Point>
      </Placemark>
      <Placemark id="MT KANCAMAGUS">
        <name>MT KANCAMAGUS</name>
        <description>Elevation: 3763
Latitude: 44.01111111
Longitude: -71.47944444
Name: MT KANCAMAGUS
Prominence: 
Rank: 60
State: NH
</description>
        <visibility>1</visibility>
        <Point>
          <coordinates>-71.479444,44.011111</coordinates>
        </Point>
      </Placemark>
      <Placemark id="MT LOWELL">
        <name>MT LOWELL</name>
        <description>Elevation: 3740
Latitude: 44.10361111
Longitude: -71.41861111
Name: MT LOWELL
Prominence: 
Rank: 61
State: NH
</description>
        <visibility>1</visibility>
        <Point>
          <coordinates>-71.418611,44.103611</coordinates>
        </Point>
      </Placemark>
      <Placemark id="MT ANDERSON">
        <name>MT ANDERSON</name>
        <description>Elevation: 3740
Latitude: 44.1125
Longitude: -71.41833333
Name: MT ANDERSON
Prominence: 
Rank: 62
State: NH
</description>
        <visibility>1</visibility>
        <Point>
          <coordinates>-71.418333,44.112500</coordinates>
        </Point>
      </Placemark>
      <Placemark id="SHELBURNE MORIAH MTN">
        <name>SHELBURNE MORIAH MTN</name>
        <description>Elevation: 3735
Latitude: 44.35305556
Longitude: -71.09916667
Name: SHELBURNE MORIAH MTN
Prominence: 
Rank: 63
State: NH
</description>
        <visibility>1</visibility>
        <Point>
          <coordinates>-71.099167,44.353056</coordinates>
        </Point>
      </Placemark>
      <Placemark id="HUTCHINS MTN MT PILOT">
        <name>HUTCHINS MTN MT PILOT</name>
        <description>Elevation: 3730
Latitude: 44.54805556
Longitude: -71.455
Name: HUTCHINS MTN MT PILOT
Prominence: 
Rank: 64
State: NH
</description>
        <visibility>1</visibility>
        <Point>
          <coordinates>-71.455000,44.548056</coordinates>
        </Point>
      </Placemark>
      <Placemark id="BUNNEL MTN (BLUE MTN)">
        <name>BUNNEL MTN (BLUE MTN)</name>
        <description>Elevation: 3730
Latitude: 44.79138889
Longitude: -71.47916667
Name: BUNNEL MTN (BLUE MTN)
Prominence: 1800
Rank: 65
State: NH
</description>
        <visibility>1</visibility>
        <Point>
          <coordinates>-71.479167,44.791389</coordinates>
        </Point>
      </Placemark>
      <Placemark id="MT DARTMOUTH">
        <name>MT DARTMOUTH</name>
        <description>Elevation: 3727
Latitude: 44.3025
Longitude: -71.38416667
Name: MT DARTMOUTH
Prominence: 
Rank: 66
State: NH
</description>
        <visibility>1</visibility>
        <Point>
          <coordinates>-71.384167,44.302500</coordinates>
        </Point>
      </Placemark>
      <Placemark id="MT BEMIS">
        <name>MT BEMIS</name>
        <description>Elevation: 3725
Latitude: 44.12694444
Longitude: -71.39416667
Name: MT BEMIS
Prominence: 
Rank: 67
State: NH
</description>
        <visibility>1</visibility>
        <Point>
          <coordinates>-71.394167,44.126944</coordinates>
        </Point>
      </Placemark>
      <Placemark id="SUGARLOAF">
        <name>SUGARLOAF</name>
        <description>Elevation: 3710
Latitude: 44.74416667
Longitude: -71.46833333
Name: SUGARLOAF
Prominence: 
Rank: 68
State: NH
</description>
        <visibility>1</visibility>
        <Point>
          <coordinates>-71.468333,44.744167</coordinates>
        </Point>
      </Placemark>
      <Placemark id="MT HUNTINGTON (S PK)">
        <name>MT HUNTINGTON (S PK)</name>
        <description>Elevation: 3700
Latitude: 44.04611111
Longitude: -71.48555556
Name: MT HUNTINGTON (S PK)
Prominence: 
Rank: 69
State: NH
</description>
        <visibility>1</visibility>
        <Point>
          <coordinates>-71.485556,44.046111</coordinates>
        </Point>
      </Placemark>
      <Placemark id="MT HUNTINGTON">
        <name>MT HUNTINGTON</name>
        <description>Elevation: 3700
Latitude: 44.05
Longitude: -71.49166667
Name: MT HUNTINGTON
Prominence: 
Rank: 70
State: NH
</description>
        <visibility>1</visibility>
        <Point>
          <coordinates>-71.491667,44.050000</coordinates>
        </Point>
      </Placemark>
      <Placemark id="MT HALE (S PK)">
        <name>MT HALE (S PK)</name>
        <description>Elevation: 3700
Latitude: 44.20083333
Longitude: -71.51916667
Name: MT HALE (S PK)
Prominence: 
Rank: 71
State: NH
</description>
        <visibility>1</visibility>
        <Point>
          <coordinates>-71.519167,44.200833</coordinates>
        </Point>
      </Placemark>
      <Placemark id="MT FIELD (W PK)">
        <name>MT FIELD (W PK)</name>
        <description>Elevation: 3691
Latitude: 44.18916667
Longitude: -71.4475
Name: MT FIELD (W PK)
Prominence: 
Rank: 72
State: NH
</description>
        <visibility>1</visibility>
        <Point>
          <coordinates>-71.447500,44.189167</coordinates>
        </Point>
      </Placemark>
      <Placemark id="MT WEEKS (M PK)">
        <name>MT WEEKS (M PK)</name>
        <description>Elevation: 3684
Latitude: 44.44944444
Longitude: -71.37972222
Name: MT WEEKS (M PK)
Prominence: 
Rank: 73
State: NH
</description>
        <visibility>1</visibility>
        <Point>
          <coordinates>-71.379722,44.449444</coordinates>
        </Point>
      </Placemark>
      <Placemark id="MT DECEPTION (E PK)">
        <name>MT DECEPTION (E PK)</name>
        <description>Elevation: 3671
Latitude: 44.29361111
Longitude: -71.42111111
Name: MT DECEPTION (E PK)
Prominence: 
Rank: 74
State: NH
</description>
        <visibility>1</visibility>
        <Point>
          <coordinates>-71.421111,44.293611</coordinates>
        </Point>
      </Placemark>
      <Placemark id="GARFIELD RIDGE (W PK)">
        <name>GARFIELD RIDGE (W PK)</name>
        <description>Elevation: 3667
Latitude: 44.18972222
Longitude: -71.59583333
Name: GARFIELD RIDGE (W PK)
Prominence: 
Rank: 75
State: NH
</description>
        <visibility>1</visibility>
        <Point>
          <coordinates>-71.595833,44.189722</coordinates>
        </Point>
      </Placemark>
      <Placemark id="LONG MTN (W PK)">
        <name>LONG MTN (W PK)</name>
        <description>Elevation: 3661
Latitude: 44.66944444
Longitude: -71.40277778
Name: LONG MTN (W PK)
Prominence: 
Rank: 76
State: NH
</description>
        <visibility>1</visibility>
        <Point>
          <coordinates>-71.402778,44.669444</coordinates>
        </Point>
      </Placemark>
      <Placemark id="LONG MTN (M PK)">
        <name>LONG MTN (M PK)</name>
        <description>Elevation: 3661
Latitude: 44.6799
Longitude: -71.3794
Name: LONG MTN (M PK)
Prominence: 1711
Rank: 77
State: NH
</description>
        <visibility>1</visibility>
        <Point>
          <coordinates>-71.379400,44.679900</coordinates>
        </Point>
      </Placemark>
      <Placemark id="TERRACE MTN (E PK)">
        <name>TERRACE MTN (E PK)</name>
        <description>Elevation: 3655
Latitude: 44.47722222
Longitude: -71.39583333
Name: TERRACE MTN (E PK)
Prominence: 
Rank: 78
State: NH
</description>
        <visibility>1</visibility>
        <Point>
          <coordinates>-71.395833,44.477222</coordinates>
        </Point>
      </Placemark>
      <Placemark id="STUB HILL">
        <name>STUB HILL</name>
        <description>Elevation: 3627
Latitude: 45.10666667
Longitude: -71.09805556
Name: STUB HILL
Prominence: 
Rank: 79
State: NH
</description>
        <visibility>1</visibility>
        <Point>
          <coordinates>-71.098056,45.106667</coordinates>
        </Point>
      </Placemark>
      <Placemark id="SCAR RIDGE (E PK)">
        <name>SCAR RIDGE (E PK)</name>
        <description>Elevation: 3620
Latitude: 44.01916667
Longitude: -71.56555556
Name: SCAR RIDGE (E PK)
Prominence: 
Rank: 80
State: NH
</description>
        <visibility>1</visibility>
        <Point>
          <coordinates>-71.565556,44.019167</coordinates>
        </Point>
      </Placemark>
      <Placemark id="MT HITCHCOCK (M PK)">
        <name>MT HITCHCOCK (M PK)</name>
        <description>Elevation: 3620
Latitude: 44.07416667
Longitude: -71.54
Name: MT HITCHCOCK (M PK)
Prominence: 
Rank: 81
State: NH
</description>
        <visibility>1</visibility>
        <Point>
          <coordinates>-71.540000,44.074167</coordinates>
        </Point>
      </Placemark>
      <Placemark id="WHITCOMB MTN (N PK)">
        <name>WHITCOMB MTN (N PK)</name>
        <description>Elevation: 3615
Latitude: 44.78555556
Longitude: -71.37861111
Name: WHITCOMB MTN (N PK)
Prominence: 
Rank: 82
State: NH
</description>
        <visibility>1</visibility>
        <Point>
          <coordinates>-71.378611,44.785556</coordinates>
        </Point>
      </Placemark>
      <Placemark id="PILOT RIDGE (M PK)">
        <name>PILOT RIDGE (M PK)</name>
        <description>Elevation: 3615
Latitude: 44.53388889
Longitude: -71.43777778
Name: PILOT RIDGE (M PK)
Prominence: 
Rank: 83
State: NH
</description>
        <visibility>1</visibility>
        <Point>
          <coordinates>-71.437778,44.533889</coordinates>
        </Point>
      </Placemark>
      <Placemark id="NORTH BALDFACE">
        <name>NORTH BALDFACE</name>
        <description>Elevation: 3610
Latitude: 44.24277778
Longitude: -71.0875
Name: NORTH BALDFACE
Prominence: 
Rank: 84
State: NH
</description>
        <visibility>1</visibility>
        <Point>
          <coordinates>-71.087500,44.242778</coordinates>
        </Point>
      </Placemark>
      <Placemark id="GORE MTN">
        <name>GORE MTN</name>
        <description>Elevation: 3610
Latitude: 44.77388889
Longitude: -71.46583333
Name: GORE MTN
Prominence: 
Rank: 85
State: NH
</description>
        <visibility>1</visibility>
        <Point>
          <coordinates>-71.465833,44.773889</coordinates>
        </Point>
      </Placemark>
      <Placemark id="PLINY MTN">
        <name>PLINY MTN</name>
        <description>Elevation: 3606
Latitude: 44.41666667
Longitude: -71.39333333
Name: PLINY MTN
Prominence: 
Rank: 86
State: NH
</description>
        <visibility>1</visibility>
        <Point>
          <coordinates>-71.393333,44.416667</coordinates>
        </Point>
      </Placemark>
      <Placemark id="SCAUR PK">
        <name>SCAUR PK</name>
        <description>Elevation: 3605
Latitude: 43.985
Longitude: -71.45055556
Name: SCAUR PK
Prominence: 
Rank: 87
State: NH
</description>
        <visibility>1</visibility>
        <Point>
          <coordinates>-71.450556,43.985000</coordinates>
        </Point>
      </Placemark>
      <Placemark id="WEST PK">
        <name>WEST PK</name>
        <description>Elevation: 3593
Latitude: 44.75416667
Longitude: -71.49638889
Name: WEST PK
Prominence: 
Rank: 88
State: NH
</description>
        <visibility>1</visibility>
        <Point>
          <coordinates>-71.496389,44.754167</coordinates>
        </Point>
      </Placemark>
      <Placemark id="GARFIELD RIDGE (E PK)">
        <name>GARFIELD RIDGE (E PK)</name>
        <description>Elevation: 3590
Latitude: 44.19277778
Longitude: -71.5825
Name: GARFIELD RIDGE (E PK)
Prominence: 
Rank: 89
State: NH
</description>
        <visibility>1</visibility>
        <Point>
          <coordinates>-71.582500,44.192778</coordinates>
        </Point>
      </Placemark>
      <Placemark id="CHERRY MTN (MT MARTHA)">
        <name>CHERRY MTN (MT MARTHA)</name>
        <description>Elevation: 3572
Latitude: 44.33083333
Longitude: -71.49972222
Name: CHERRY MTN (MT MARTHA)
Prominence: 1574
Rank: 90
State: NH
</description>
        <visibility>1</visibility>
        <Point>
          <coordinates>-71.499722,44.330833</coordinates>
        </Point>
      </Placemark>
      <Placemark id="SOUTH BALDFACE">
        <name>SOUTH BALDFACE</name>
        <description>Elevation: 3570
Latitude: 44.23083333
Longitude: -71.07833333
Name: SOUTH BALDFACE
Prominence: 
Rank: 91
State: NH
</description>
        <visibility>1</visibility>
        <Point>
          <coordinates>-71.078333,44.230833</coordinates>
        </Point>
      </Placemark>
      <Placemark id="PILOT RIDGE (E PK)">
        <name>PILOT RIDGE (E PK)</name>
        <description>Elevation: 3570
Latitude: 44.52833333
Longitude: -71.42861111
Name: PILOT RIDGE (E PK)
Prominence: 
Rank: 92
State: NH
</description>
        <visibility>1</visibility>
        <Point>
          <coordinates>-71.428611,44.528333</coordinates>
        </Point>
      </Placemark>
      <Placemark id="MT SUCCESS">
        <name>MT SUCCESS</name>
        <description>Elevation: 3565
Latitude: 44.47138889
Longitude: -71.03972222
Name: MT SUCCESS
Prominence: 
Rank: 93
State: NH
</description>
        <visibility>1</visibility>
        <Point>
          <coordinates>-71.039722,44.471389</coordinates>
        </Point>
      </Placemark>
      <Placemark id="MT CLOUGH">
        <name>MT CLOUGH</name>
        <description>Elevation: 3561
Latitude: 44.02916667
Longitude: -71.87277778
Name: MT CLOUGH
Prominence: 
Rank: 94
State: NH
</description>
        <visibility>1</visibility>
        <Point>
          <coordinates>-71.872778,44.029167</coordinates>
        </Point>
      </Placemark>
      <Placemark id="THE FOOL KILLER">
        <name>THE FOOL KILLER</name>
        <description>Elevation: 3548
Latitude: 43.97138889
Longitude: -71.42694444
Name: THE FOOL KILLER
Prominence: 
Rank: 95
State: NH
</description>
        <visibility>1</visibility>
        <Point>
          <coordinates>-71.426944,43.971389</coordinates>
        </Point>
      </Placemark>
      <Placemark id="THE CAPTAIN CARRIGAIN POND PK">
        <name>THE CAPTAIN CARRIGAIN POND PK</name>
        <description>Elevation: 3540
Latitude: 44.08388889
Longitude: -71.46277778
Name: THE CAPTAIN CARRIGAIN POND PK
Prominence: 
Rank: 96
State: NH
</description>
        <visibility>1</visibility>
        <Point>
          <coordinates>-71.462778,44.083889</coordinates>
        </Point>
      </Placemark>
      <Placemark id="SABLE MTN">
        <name>SABLE MTN</name>
        <description>Elevation: 3519
Latitude: 44.21472222
Longitude: -71.09638889
Name: SABLE MTN
Prominence: 
Rank: 97
State: NH
</description>
        <visibility>1</visibility>
        <Point>
          <coordinates>-71.096389,44.214722</coordinates>
        </Point>
      </Placemark>
      <Placemark id="UNNAMED PK UNKNOWN POND">
        <name>UNNAMED PK UNKNOWN POND</name>
        <description>Elevation: 3510
Latitude: 44.52861111
Longitude: -71.38083333
Name: UNNAMED PK UNKNOWN POND
Prominence: 
Rank: 98
State: NH
</description>
        <visibility>1</visibility>
        <Point>
          <coordinates>-71.380833,44.528611</coordinates>
        </Point>
      </Placemark>
      <Placemark id="SAVAGE MTN">
        <name>SAVAGE MTN</name>
        <description>Elevation: 3510
Latitude: 44.73194444
Longitude: -71.545
Name: SAVAGE MTN
Prominence: 
Rank: 99
State: NH
</description>
        <visibility>1</visibility>
        <Point>
          <coordinates>-71.545000,44.731944</coordinates>
        </Point>
      </Placemark>
      <Placemark id="SCAR RIDGE (M PK)">
        <name>SCAR RIDGE (M PK)</name>
        <description>Elevation: 3500
Latitude: 44.02527778
Longitude: -71.58083333
Name: SCAR RIDGE (M PK)
Prominence: 
Rank: 100
State: NH
</description>
        <visibility>1</visibility>
        <Point>
          <coordinates>-71.580833,44.025278</coordinates>
        </Point>
      </Placemark>
    </Folder>
  </Document>
</kml>
