<kml xmlns="http://www.opengis.net/kml/2.2">
  <Document id="NH-4000-footers">
    <name>NH-4000-footers</name>
    <description>pinmap for NH-4000-footers</description>
    <visibility>1</visibility>
    <Folder id="NH-4000-footers">
      <name>NH-4000-footers</name>
      <description>kml map of list points for NH-4000-footers</description>
      <visibility>1</visibility>
      <Placemark id="MT WASHINGTON">
        <name>MT WASHINGTON</name>
        <description>Latitude: 44.27055556
Longitude: -71.30388889
Elevation: 6288
State: NH
Name: MT WASHINGTON
</description>
        <visibility>1</visibility>
        <Point>
          <coordinates>-71.303889,44.270556</coordinates>
        </Point>
      </Placemark>
      <Placemark id="MT ADAMS">
        <name>MT ADAMS</name>
        <description>Latitude: 44.32055556
Longitude: -71.29194444
Elevation: 5774
State: NH
Name: MT ADAMS
</description>
        <visibility>1</visibility>
        <Point>
          <coordinates>-71.291944,44.320556</coordinates>
        </Point>
      </Placemark>
      <Placemark id="MT JEFFERSON">
        <name>MT JEFFERSON</name>
        <description>Latitude: 44.30416667
Longitude: -71.31722222
Elevation: 5712
State: NH
Name: MT JEFFERSON
</description>
        <visibility>1</visibility>
        <Point>
          <coordinates>-71.317222,44.304167</coordinates>
        </Point>
      </Placemark>
      <Placemark id="MT MONROE">
        <name>MT MONROE</name>
        <description>Latitude: 44.25527778
Longitude: -71.32166667
Elevation: 5384
State: NH
Name: MT MONROE
</description>
        <visibility>1</visibility>
        <Point>
          <coordinates>-71.321667,44.255278</coordinates>
        </Point>
      </Placemark>
      <Placemark id="MT MADISON">
        <name>MT MADISON</name>
        <description>Latitude: 44.32861111
Longitude: -71.27722222
Elevation: 5367
State: NH
Name: MT MADISON
</description>
        <visibility>1</visibility>
        <Point>
          <coordinates>-71.277222,44.328611</coordinates>
        </Point>
      </Placemark>
      <Placemark id="MT LAFAYETTE">
        <name>MT LAFAYETTE</name>
        <description>Latitude: 44.16055556
Longitude: -71.645
Elevation: 5260
State: NH
Name: MT LAFAYETTE
</description>
        <visibility>1</visibility>
        <Point>
          <coordinates>-71.645000,44.160556</coordinates>
        </Point>
      </Placemark>
      <Placemark id="MT LINCOLN">
        <name>MT LINCOLN</name>
        <description>Latitude: 44.14888889
Longitude: -71.645
Elevation: 5089
State: NH
Name: MT LINCOLN
</description>
        <visibility>1</visibility>
        <Point>
          <coordinates>-71.645000,44.148889</coordinates>
        </Point>
      </Placemark>
      <Placemark id="SOUTH TWIN MTN">
        <name>SOUTH TWIN MTN</name>
        <description>Latitude: 44.1875
Longitude: -71.55527778
Elevation: 4902
State: NH
Name: SOUTH TWIN MTN
</description>
        <visibility>1</visibility>
        <Point>
          <coordinates>-71.555278,44.187500</coordinates>
        </Point>
      </Placemark>
      <Placemark id="CARTER DOME">
        <name>CARTER DOME</name>
        <description>Latitude: 44.26722222
Longitude: -71.17972222
Elevation: 4832
State: NH
Name: CARTER DOME
</description>
        <visibility>1</visibility>
        <Point>
          <coordinates>-71.179722,44.267222</coordinates>
        </Point>
      </Placemark>
      <Placemark id="MT MOOSILAUKE">
        <name>MT MOOSILAUKE</name>
        <description>Latitude: 44.02333333
Longitude: -71.83194444
Elevation: 4802
State: NH
Name: MT MOOSILAUKE
</description>
        <visibility>1</visibility>
        <Point>
          <coordinates>-71.831944,44.023333</coordinates>
        </Point>
      </Placemark>
      <Placemark id="MT EISENHOWER">
        <name>MT EISENHOWER</name>
        <description>Latitude: 44.24055556
Longitude: -71.35083333
Elevation: 4780
State: NH
Name: MT EISENHOWER
</description>
        <visibility>1</visibility>
        <Point>
          <coordinates>-71.350833,44.240556</coordinates>
        </Point>
      </Placemark>
      <Placemark id="NORTH TWIN MTN">
        <name>NORTH TWIN MTN</name>
        <description>Latitude: 44.2025
Longitude: -71.55833333
Elevation: 4761
State: NH
Name: NORTH TWIN MTN
</description>
        <visibility>1</visibility>
        <Point>
          <coordinates>-71.558333,44.202500</coordinates>
        </Point>
      </Placemark>
      <Placemark id="MT CARRIGAIN">
        <name>MT CARRIGAIN</name>
        <description>Latitude: 44.09361111
Longitude: -71.4475
Elevation: 4700
State: NH
Name: MT CARRIGAIN
</description>
        <visibility>1</visibility>
        <Point>
          <coordinates>-71.447500,44.093611</coordinates>
        </Point>
      </Placemark>
      <Placemark id="MT BOND">
        <name>MT BOND</name>
        <description>Latitude: 44.15305556
Longitude: -71.53166667
Elevation: 4698
State: NH
Name: MT BOND
</description>
        <visibility>1</visibility>
        <Point>
          <coordinates>-71.531667,44.153056</coordinates>
        </Point>
      </Placemark>
      <Placemark id="MIDDLE CARTER MTN">
        <name>MIDDLE CARTER MTN</name>
        <description>Latitude: 44.30305556
Longitude: -71.16833333
Elevation: 4610
State: NH
Name: MIDDLE CARTER MTN
</description>
        <visibility>1</visibility>
        <Point>
          <coordinates>-71.168333,44.303056</coordinates>
        </Point>
      </Placemark>
      <Placemark id="MT GUYOT">
        <name>MT GUYOT</name>
        <description>Latitude: 44.16805556
Longitude: -71.53444444
Elevation: 4580
State: NH
Name: MT GUYOT
</description>
        <visibility>1</visibility>
        <Point>
          <coordinates>-71.534444,44.168056</coordinates>
        </Point>
      </Placemark>
      <Placemark id="MT BOND (W PK)">
        <name>MT BOND (W PK)</name>
        <description>Latitude: 44.15472222
Longitude: -71.54388889
Elevation: 4540
State: NH
Name: MT BOND (W PK)
</description>
        <visibility>1</visibility>
        <Point>
          <coordinates>-71.543889,44.154722</coordinates>
        </Point>
      </Placemark>
      <Placemark id="MT GARFIELD">
        <name>MT GARFIELD</name>
        <description>Latitude: 44.18722222
Longitude: -71.61111111
Elevation: 4500
State: NH
Name: MT GARFIELD
</description>
        <visibility>1</visibility>
        <Point>
          <coordinates>-71.611111,44.187222</coordinates>
        </Point>
      </Placemark>
      <Placemark id="MT LIBERTY">
        <name>MT LIBERTY</name>
        <description>Latitude: 44.11583333
Longitude: -71.64277778
Elevation: 4459
State: NH
Name: MT LIBERTY
</description>
        <visibility>1</visibility>
        <Point>
          <coordinates>-71.642778,44.115833</coordinates>
        </Point>
      </Placemark>
      <Placemark id="SOUTH CARTER MTN">
        <name>SOUTH CARTER MTN</name>
        <description>Latitude: 44.28972222
Longitude: -71.17694444
Elevation: 4430
State: NH
Name: SOUTH CARTER MTN
</description>
        <visibility>1</visibility>
        <Point>
          <coordinates>-71.176944,44.289722</coordinates>
        </Point>
      </Placemark>
      <Placemark id="WILDCAT MTN">
        <name>WILDCAT MTN</name>
        <description>Latitude: 44.25916667
Longitude: -71.20222222
Elevation: 4422
State: NH
Name: WILDCAT MTN
</description>
        <visibility>1</visibility>
        <Point>
          <coordinates>-71.202222,44.259167</coordinates>
        </Point>
      </Placemark>
      <Placemark id="MT HANCOCK">
        <name>MT HANCOCK</name>
        <description>Latitude: 44.08333333
Longitude: -71.49388889
Elevation: 4420
State: NH
Name: MT HANCOCK
</description>
        <visibility>1</visibility>
        <Point>
          <coordinates>-71.493889,44.083333</coordinates>
        </Point>
      </Placemark>
      <Placemark id="KINSMAN MTN (S PK)">
        <name>KINSMAN MTN (S PK)</name>
        <description>Latitude: 44.12277778
Longitude: -71.73694444
Elevation: 4358
State: NH
Name: KINSMAN MTN (S PK)
</description>
        <visibility>1</visibility>
        <Point>
          <coordinates>-71.736944,44.122778</coordinates>
        </Point>
      </Placemark>
      <Placemark id="MT FIELD">
        <name>MT FIELD</name>
        <description>Latitude: 44.19611111
Longitude: -71.43388889
Elevation: 4340
State: NH
Name: MT FIELD
</description>
        <visibility>1</visibility>
        <Point>
          <coordinates>-71.433889,44.196111</coordinates>
        </Point>
      </Placemark>
      <Placemark id="MT OSCEOLA">
        <name>MT OSCEOLA</name>
        <description>Latitude: 44.00166667
Longitude: -71.53638889
Elevation: 4340
State: NH
Name: MT OSCEOLA
</description>
        <visibility>1</visibility>
        <Point>
          <coordinates>-71.536389,44.001667</coordinates>
        </Point>
      </Placemark>
      <Placemark id="MT FLUME">
        <name>MT FLUME</name>
        <description>Latitude: 44.10861111
Longitude: -71.62861111
Elevation: 4328
State: NH
Name: MT FLUME
</description>
        <visibility>1</visibility>
        <Point>
          <coordinates>-71.628611,44.108611</coordinates>
        </Point>
      </Placemark>
      <Placemark id="MT HANCOCK (S PK)">
        <name>MT HANCOCK (S PK)</name>
        <description>Latitude: 44.07333333
Longitude: -71.4875
Elevation: 4319
State: NH
Name: MT HANCOCK (S PK)
</description>
        <visibility>1</visibility>
        <Point>
          <coordinates>-71.487500,44.073333</coordinates>
        </Point>
      </Placemark>
      <Placemark id="MT PIERCE">
        <name>MT PIERCE</name>
        <description>Latitude: 44.22694444
Longitude: -71.36611111
Elevation: 4310
State: NH
Name: MT PIERCE
</description>
        <visibility>1</visibility>
        <Point>
          <coordinates>-71.366111,44.226944</coordinates>
        </Point>
      </Placemark>
      <Placemark id="KINSMAN MTN (N PK)">
        <name>KINSMAN MTN (N PK)</name>
        <description>Latitude: 44.13333333
Longitude: -71.73722222
Elevation: 4293
State: NH
Name: KINSMAN MTN (N PK)
</description>
        <visibility>1</visibility>
        <Point>
          <coordinates>-71.737222,44.133333</coordinates>
        </Point>
      </Placemark>
      <Placemark id="MT WILLEY">
        <name>MT WILLEY</name>
        <description>Latitude: 44.18333333
Longitude: -71.42166667
Elevation: 4285
State: NH
Name: MT WILLEY
</description>
        <visibility>1</visibility>
        <Point>
          <coordinates>-71.421667,44.183333</coordinates>
        </Point>
      </Placemark>
      <Placemark id="MT BOND, THE CLIFFS">
        <name>MT BOND, THE CLIFFS</name>
        <description>Latitude: 44.14055556
Longitude: -71.54111111
Elevation: 4265
State: NH
Name: MT BOND, THE CLIFFS
</description>
        <visibility>1</visibility>
        <Point>
          <coordinates>-71.541111,44.140556</coordinates>
        </Point>
      </Placemark>
      <Placemark id="ZEALAND RIDGE">
        <name>ZEALAND RIDGE</name>
        <description>Latitude: 44.17972222
Longitude: -71.52194444
Elevation: 4260
State: NH
Name: ZEALAND RIDGE
</description>
        <visibility>1</visibility>
        <Point>
          <coordinates>-71.521944,44.179722</coordinates>
        </Point>
      </Placemark>
      <Placemark id="MT TRIPYRAMID (N PK)">
        <name>MT TRIPYRAMID (N PK)</name>
        <description>Latitude: 43.97305556
Longitude: -71.44333333
Elevation: 4180
State: NH
Name: MT TRIPYRAMID (N PK)
</description>
        <visibility>1</visibility>
        <Point>
          <coordinates>-71.443333,43.973056</coordinates>
        </Point>
      </Placemark>
      <Placemark id="MT CABOT">
        <name>MT CABOT</name>
        <description>Latitude: 44.50583333
Longitude: -71.41472222
Elevation: 4170
State: NH
Name: MT CABOT
</description>
        <visibility>1</visibility>
        <Point>
          <coordinates>-71.414722,44.505833</coordinates>
        </Point>
      </Placemark>
      <Placemark id="MT OSCEOLA (E PK)">
        <name>MT OSCEOLA (E PK)</name>
        <description>Latitude: 44.00611111
Longitude: -71.52111111
Elevation: 4156
State: NH
Name: MT OSCEOLA (E PK)
</description>
        <visibility>1</visibility>
        <Point>
          <coordinates>-71.521111,44.006111</coordinates>
        </Point>
      </Placemark>
      <Placemark id="MT TRIPYRAMID (M PK)">
        <name>MT TRIPYRAMID (M PK)</name>
        <description>Latitude: 43.96444444
Longitude: -71.44055556
Elevation: 4140
State: NH
Name: MT TRIPYRAMID (M PK)
</description>
        <visibility>1</visibility>
        <Point>
          <coordinates>-71.440556,43.964444</coordinates>
        </Point>
      </Placemark>
      <Placemark id="CANNON MTN">
        <name>CANNON MTN</name>
        <description>Latitude: 44.15666667
Longitude: -71.69944444
Elevation: 4100
State: NH
Name: CANNON MTN
</description>
        <visibility>1</visibility>
        <Point>
          <coordinates>-71.699444,44.156667</coordinates>
        </Point>
      </Placemark>
      <Placemark id="WILDCAT RIDGE (D PK)">
        <name>WILDCAT RIDGE (D PK)</name>
        <description>Latitude: 44.24916667
Longitude: -71.22416667
Elevation: 4070
State: NH
Name: WILDCAT RIDGE (D PK)
</description>
        <visibility>1</visibility>
        <Point>
          <coordinates>-71.224167,44.249167</coordinates>
        </Point>
      </Placemark>
      <Placemark id="MT HALE">
        <name>MT HALE</name>
        <description>Latitude: 44.22166667
Longitude: -71.5125
Elevation: 4054
State: NH
Name: MT HALE
</description>
        <visibility>1</visibility>
        <Point>
          <coordinates>-71.512500,44.221667</coordinates>
        </Point>
      </Placemark>
      <Placemark id="MT JACKSON">
        <name>MT JACKSON</name>
        <description>Latitude: 44.20305556
Longitude: -71.37583333
Elevation: 4052
State: NH
Name: MT JACKSON
</description>
        <visibility>1</visibility>
        <Point>
          <coordinates>-71.375833,44.203056</coordinates>
        </Point>
      </Placemark>
      <Placemark id="MT TOM">
        <name>MT TOM</name>
        <description>Latitude: 44.21027778
Longitude: -71.44666667
Elevation: 4051
State: NH
Name: MT TOM
</description>
        <visibility>1</visibility>
        <Point>
          <coordinates>-71.446667,44.210278</coordinates>
        </Point>
      </Placemark>
      <Placemark id="MT MORIAH">
        <name>MT MORIAH</name>
        <description>Latitude: 44.34027778
Longitude: -71.13222222
Elevation: 4049
State: NH
Name: MT MORIAH
</description>
        <visibility>1</visibility>
        <Point>
          <coordinates>-71.132222,44.340278</coordinates>
        </Point>
      </Placemark>
      <Placemark id="MT PASSACONAWAY">
        <name>MT PASSACONAWAY</name>
        <description>Latitude: 43.95472222
Longitude: -71.38111111
Elevation: 4043
State: NH
Name: MT PASSACONAWAY
</description>
        <visibility>1</visibility>
        <Point>
          <coordinates>-71.381111,43.954722</coordinates>
        </Point>
      </Placemark>
      <Placemark id="OWLS HEAD">
        <name>OWLS HEAD</name>
        <description>Latitude: 44.14416667
Longitude: -71.60555556
Elevation: 4025
State: NH
Name: OWLS HEAD
</description>
        <visibility>1</visibility>
        <Point>
          <coordinates>-71.605556,44.144167</coordinates>
        </Point>
      </Placemark>
      <Placemark id="GALEHEAD">
        <name>GALEHEAD</name>
        <description>Latitude: 44.185
Longitude: -71.57388889
Elevation: 4024
State: NH
Name: GALEHEAD
</description>
        <visibility>1</visibility>
        <Point>
          <coordinates>-71.573889,44.185000</coordinates>
        </Point>
      </Placemark>
      <Placemark id="MT WHITEFACE">
        <name>MT WHITEFACE</name>
        <description>Latitude: 43.93666667
Longitude: -71.40805556
Elevation: 4020
State: NH
Name: MT WHITEFACE
</description>
        <visibility>1</visibility>
        <Point>
          <coordinates>-71.408056,43.936667</coordinates>
        </Point>
      </Placemark>
      <Placemark id="MT WAUMBEK">
        <name>MT WAUMBEK</name>
        <description>Latitude: 44.4325
Longitude: -71.41777778
Elevation: 4006
State: NH
Name: MT WAUMBEK
</description>
        <visibility>1</visibility>
        <Point>
          <coordinates>-71.417778,44.432500</coordinates>
        </Point>
      </Placemark>
      <Placemark id="MT ISOLATION">
        <name>MT ISOLATION</name>
        <description>Latitude: 44.21472222
Longitude: -71.31
Elevation: 4004
State: NH
Name: MT ISOLATION
</description>
        <visibility>1</visibility>
        <Point>
          <coordinates>-71.310000,44.214722</coordinates>
        </Point>
      </Placemark>
      <Placemark id="MT TECUMSEH">
        <name>MT TECUMSEH</name>
        <description>Latitude: 43.96638889
Longitude: -71.55694444
Elevation: 4003
State: NH
Name: MT TECUMSEH
</description>
        <visibility>1</visibility>
        <Point>
          <coordinates>-71.556944,43.966389</coordinates>
        </Point>
      </Placemark>
    </Folder>
  </Document>
</kml>
