<kml xmlns="http://www.opengis.net/kml/2.2">
  <Document id="NH-4000-footers">
    <name>NH-4000-footers</name>
    <description>pinmap for NH-4000-footers</description>
    <visibility>1</visibility>
    <Folder id="NH-4000-footers">
      <name>NH-4000-footers</name>
      <description>kml map of list points for NH-4000-footers</description>
      <visibility>1</visibility>
      <Placemark id="MT WASHINGTON">
        <name>MT WASHINGTON</name>
        <description>State: NH
Elevation: 6288
Latitude: 44.27055556
Name: MT WASHINGTON
Longitude: -71.30388889
</description>
        <visibility>1</visibility>
        <Point>
          <coordinates>-71.303889,44.270556</coordinates>
        </Point>
      </Placemark>
      <Placemark id="MT ADAMS">
        <name>MT ADAMS</name>
        <description>State: NH
Elevation: 5774
Latitude: 44.32055556
Name: MT ADAMS
Longitude: -71.29194444
</description>
        <visibility>1</visibility>
        <Point>
          <coordinates>-71.291944,44.320556</coordinates>
        </Point>
      </Placemark>
      <Placemark id="MT JEFFERSON">
        <name>MT JEFFERSON</name>
        <description>State: NH
Elevation: 5712
Latitude: 44.30416667
Name: MT JEFFERSON
Longitude: -71.31722222
</description>
        <visibility>1</visibility>
        <Point>
          <coordinates>-71.317222,44.304167</coordinates>
        </Point>
      </Placemark>
      <Placemark id="MT MONROE">
        <name>MT MONROE</name>
        <description>State: NH
Elevation: 5384
Latitude: 44.25527778
Name: MT MONROE
Longitude: -71.32166667
</description>
        <visibility>1</visibility>
        <Point>
          <coordinates>-71.321667,44.255278</coordinates>
        </Point>
      </Placemark>
      <Placemark id="MT MADISON">
        <name>MT MADISON</name>
        <description>State: NH
Elevation: 5367
Latitude: 44.32861111
Name: MT MADISON
Longitude: -71.27722222
</description>
        <visibility>1</visibility>
        <Point>
          <coordinates>-71.277222,44.328611</coordinates>
        </Point>
      </Placemark>
      <Placemark id="MT LAFAYETTE">
        <name>MT LAFAYETTE</name>
        <description>State: NH
Elevation: 5260
Latitude: 44.16055556
Name: MT LAFAYETTE
Longitude: -71.645
</description>
        <visibility>1</visibility>
        <Point>
          <coordinates>-71.645000,44.160556</coordinates>
        </Point>
      </Placemark>
      <Placemark id="MT LINCOLN">
        <name>MT LINCOLN</name>
        <description>State: NH
Elevation: 5089
Latitude: 44.14888889
Name: MT LINCOLN
Longitude: -71.645
</description>
        <visibility>1</visibility>
        <Point>
          <coordinates>-71.645000,44.148889</coordinates>
        </Point>
      </Placemark>
      <Placemark id="SOUTH TWIN MTN">
        <name>SOUTH TWIN MTN</name>
        <description>State: NH
Elevation: 4902
Latitude: 44.1875
Name: SOUTH TWIN MTN
Longitude: -71.55527778
</description>
        <visibility>1</visibility>
        <Point>
          <coordinates>-71.555278,44.187500</coordinates>
        </Point>
      </Placemark>
      <Placemark id="CARTER DOME">
        <name>CARTER DOME</name>
        <description>State: NH
Elevation: 4832
Latitude: 44.26722222
Name: CARTER DOME
Longitude: -71.17972222
</description>
        <visibility>1</visibility>
        <Point>
          <coordinates>-71.179722,44.267222</coordinates>
        </Point>
      </Placemark>
      <Placemark id="MT MOOSILAUKE">
        <name>MT MOOSILAUKE</name>
        <description>State: NH
Elevation: 4802
Latitude: 44.02333333
Name: MT MOOSILAUKE
Longitude: -71.83194444
</description>
        <visibility>1</visibility>
        <Point>
          <coordinates>-71.831944,44.023333</coordinates>
        </Point>
      </Placemark>
      <Placemark id="MT EISENHOWER">
        <name>MT EISENHOWER</name>
        <description>State: NH
Elevation: 4780
Latitude: 44.24055556
Name: MT EISENHOWER
Longitude: -71.35083333
</description>
        <visibility>1</visibility>
        <Point>
          <coordinates>-71.350833,44.240556</coordinates>
        </Point>
      </Placemark>
      <Placemark id="NORTH TWIN MTN">
        <name>NORTH TWIN MTN</name>
        <description>State: NH
Elevation: 4761
Latitude: 44.2025
Name: NORTH TWIN MTN
Longitude: -71.55833333
</description>
        <visibility>1</visibility>
        <Point>
          <coordinates>-71.558333,44.202500</coordinates>
        </Point>
      </Placemark>
      <Placemark id="MT CARRIGAIN">
        <name>MT CARRIGAIN</name>
        <description>State: NH
Elevation: 4700
Latitude: 44.09361111
Name: MT CARRIGAIN
Longitude: -71.4475
</description>
        <visibility>1</visibility>
        <Point>
          <coordinates>-71.447500,44.093611</coordinates>
        </Point>
      </Placemark>
      <Placemark id="MT BOND">
        <name>MT BOND</name>
        <description>State: NH
Elevation: 4698
Latitude: 44.15305556
Name: MT BOND
Longitude: -71.53166667
</description>
        <visibility>1</visibility>
        <Point>
          <coordinates>-71.531667,44.153056</coordinates>
        </Point>
      </Placemark>
      <Placemark id="MIDDLE CARTER MTN">
        <name>MIDDLE CARTER MTN</name>
        <description>State: NH
Elevation: 4610
Latitude: 44.30305556
Name: MIDDLE CARTER MTN
Longitude: -71.16833333
</description>
        <visibility>1</visibility>
        <Point>
          <coordinates>-71.168333,44.303056</coordinates>
        </Point>
      </Placemark>
      <Placemark id="MT GUYOT">
        <name>MT GUYOT</name>
        <description>State: NH
Elevation: 4580
Latitude: 44.16805556
Name: MT GUYOT
Longitude: -71.53444444
</description>
        <visibility>1</visibility>
        <Point>
          <coordinates>-71.534444,44.168056</coordinates>
        </Point>
      </Placemark>
      <Placemark id="MT BOND (W PK)">
        <name>MT BOND (W PK)</name>
        <description>State: NH
Elevation: 4540
Latitude: 44.15472222
Name: MT BOND (W PK)
Longitude: -71.54388889
</description>
        <visibility>1</visibility>
        <Point>
          <coordinates>-71.543889,44.154722</coordinates>
        </Point>
      </Placemark>
      <Placemark id="MT GARFIELD">
        <name>MT GARFIELD</name>
        <description>State: NH
Elevation: 4500
Latitude: 44.18722222
Name: MT GARFIELD
Longitude: -71.61111111
</description>
        <visibility>1</visibility>
        <Point>
          <coordinates>-71.611111,44.187222</coordinates>
        </Point>
      </Placemark>
      <Placemark id="MT LIBERTY">
        <name>MT LIBERTY</name>
        <description>State: NH
Elevation: 4459
Latitude: 44.11583333
Name: MT LIBERTY
Longitude: -71.64277778
</description>
        <visibility>1</visibility>
        <Point>
          <coordinates>-71.642778,44.115833</coordinates>
        </Point>
      </Placemark>
      <Placemark id="SOUTH CARTER MTN">
        <name>SOUTH CARTER MTN</name>
        <description>State: NH
Elevation: 4430
Latitude: 44.28972222
Name: SOUTH CARTER MTN
Longitude: -71.17694444
</description>
        <visibility>1</visibility>
        <Point>
          <coordinates>-71.176944,44.289722</coordinates>
        </Point>
      </Placemark>
      <Placemark id="WILDCAT MTN">
        <name>WILDCAT MTN</name>
        <description>State: NH
Elevation: 4422
Latitude: 44.25916667
Name: WILDCAT MTN
Longitude: -71.20222222
</description>
        <visibility>1</visibility>
        <Point>
          <coordinates>-71.202222,44.259167</coordinates>
        </Point>
      </Placemark>
      <Placemark id="MT HANCOCK">
        <name>MT HANCOCK</name>
        <description>State: NH
Elevation: 4420
Latitude: 44.08333333
Name: MT HANCOCK
Longitude: -71.49388889
</description>
        <visibility>1</visibility>
        <Point>
          <coordinates>-71.493889,44.083333</coordinates>
        </Point>
      </Placemark>
      <Placemark id="KINSMAN MTN (S PK)">
        <name>KINSMAN MTN (S PK)</name>
        <description>State: NH
Elevation: 4358
Latitude: 44.12277778
Name: KINSMAN MTN (S PK)
Longitude: -71.73694444
</description>
        <visibility>1</visibility>
        <Point>
          <coordinates>-71.736944,44.122778</coordinates>
        </Point>
      </Placemark>
      <Placemark id="MT OSCEOLA">
        <name>MT OSCEOLA</name>
        <description>State: NH
Elevation: 4340
Latitude: 44.00166667
Name: MT OSCEOLA
Longitude: -71.53638889
</description>
        <visibility>1</visibility>
        <Point>
          <coordinates>-71.536389,44.001667</coordinates>
        </Point>
      </Placemark>
      <Placemark id="MT FIELD">
        <name>MT FIELD</name>
        <description>State: NH
Elevation: 4340
Latitude: 44.19611111
Name: MT FIELD
Longitude: -71.43388889
</description>
        <visibility>1</visibility>
        <Point>
          <coordinates>-71.433889,44.196111</coordinates>
        </Point>
      </Placemark>
      <Placemark id="MT FLUME">
        <name>MT FLUME</name>
        <description>State: NH
Elevation: 4328
Latitude: 44.10861111
Name: MT FLUME
Longitude: -71.62861111
</description>
        <visibility>1</visibility>
        <Point>
          <coordinates>-71.628611,44.108611</coordinates>
        </Point>
      </Placemark>
      <Placemark id="MT HANCOCK (S PK)">
        <name>MT HANCOCK (S PK)</name>
        <description>State: NH
Elevation: 4319
Latitude: 44.07333333
Name: MT HANCOCK (S PK)
Longitude: -71.4875
</description>
        <visibility>1</visibility>
        <Point>
          <coordinates>-71.487500,44.073333</coordinates>
        </Point>
      </Placemark>
      <Placemark id="MT PIERCE">
        <name>MT PIERCE</name>
        <description>State: NH
Elevation: 4310
Latitude: 44.22694444
Name: MT PIERCE
Longitude: -71.36611111
</description>
        <visibility>1</visibility>
        <Point>
          <coordinates>-71.366111,44.226944</coordinates>
        </Point>
      </Placemark>
      <Placemark id="KINSMAN MTN (N PK)">
        <name>KINSMAN MTN (N PK)</name>
        <description>State: NH
Elevation: 4293
Latitude: 44.13333333
Name: KINSMAN MTN (N PK)
Longitude: -71.73722222
</description>
        <visibility>1</visibility>
        <Point>
          <coordinates>-71.737222,44.133333</coordinates>
        </Point>
      </Placemark>
      <Placemark id="MT WILLEY">
        <name>MT WILLEY</name>
        <description>State: NH
Elevation: 4285
Latitude: 44.18333333
Name: MT WILLEY
Longitude: -71.42166667
</description>
        <visibility>1</visibility>
        <Point>
          <coordinates>-71.421667,44.183333</coordinates>
        </Point>
      </Placemark>
      <Placemark id="MT BOND, THE CLIFFS">
        <name>MT BOND, THE CLIFFS</name>
        <description>State: NH
Elevation: 4265
Latitude: 44.14055556
Name: MT BOND, THE CLIFFS
Longitude: -71.54111111
</description>
        <visibility>1</visibility>
        <Point>
          <coordinates>-71.541111,44.140556</coordinates>
        </Point>
      </Placemark>
      <Placemark id="ZEALAND RIDGE">
        <name>ZEALAND RIDGE</name>
        <description>State: NH
Elevation: 4260
Latitude: 44.17972222
Name: ZEALAND RIDGE
Longitude: -71.52194444
</description>
        <visibility>1</visibility>
        <Point>
          <coordinates>-71.521944,44.179722</coordinates>
        </Point>
      </Placemark>
      <Placemark id="MT TRIPYRAMID (N PK)">
        <name>MT TRIPYRAMID (N PK)</name>
        <description>State: NH
Elevation: 4180
Latitude: 43.97305556
Name: MT TRIPYRAMID (N PK)
Longitude: -71.44333333
</description>
        <visibility>1</visibility>
        <Point>
          <coordinates>-71.443333,43.973056</coordinates>
        </Point>
      </Placemark>
      <Placemark id="MT CABOT">
        <name>MT CABOT</name>
        <description>State: NH
Elevation: 4170
Latitude: 44.50583333
Name: MT CABOT
Longitude: -71.41472222
</description>
        <visibility>1</visibility>
        <Point>
          <coordinates>-71.414722,44.505833</coordinates>
        </Point>
      </Placemark>
      <Placemark id="MT OSCEOLA (E PK)">
        <name>MT OSCEOLA (E PK)</name>
        <description>State: NH
Elevation: 4156
Latitude: 44.00611111
Name: MT OSCEOLA (E PK)
Longitude: -71.52111111
</description>
        <visibility>1</visibility>
        <Point>
          <coordinates>-71.521111,44.006111</coordinates>
        </Point>
      </Placemark>
      <Placemark id="MT TRIPYRAMID (M PK)">
        <name>MT TRIPYRAMID (M PK)</name>
        <description>State: NH
Elevation: 4140
Latitude: 43.96444444
Name: MT TRIPYRAMID (M PK)
Longitude: -71.44055556
</description>
        <visibility>1</visibility>
        <Point>
          <coordinates>-71.440556,43.964444</coordinates>
        </Point>
      </Placemark>
      <Placemark id="CANNON MTN">
        <name>CANNON MTN</name>
        <description>State: NH
Elevation: 4100
Latitude: 44.15666667
Name: CANNON MTN
Longitude: -71.69944444
</description>
        <visibility>1</visibility>
        <Point>
          <coordinates>-71.699444,44.156667</coordinates>
        </Point>
      </Placemark>
      <Placemark id="WILDCAT RIDGE (D PK)">
        <name>WILDCAT RIDGE (D PK)</name>
        <description>State: NH
Elevation: 4070
Latitude: 44.24916667
Name: WILDCAT RIDGE (D PK)
Longitude: -71.22416667
</description>
        <visibility>1</visibility>
        <Point>
          <coordinates>-71.224167,44.249167</coordinates>
        </Point>
      </Placemark>
      <Placemark id="MT HALE">
        <name>MT HALE</name>
        <description>State: NH
Elevation: 4054
Latitude: 44.22166667
Name: MT HALE
Longitude: -71.5125
</description>
        <visibility>1</visibility>
        <Point>
          <coordinates>-71.512500,44.221667</coordinates>
        </Point>
      </Placemark>
      <Placemark id="MT JACKSON">
        <name>MT JACKSON</name>
        <description>State: NH
Elevation: 4052
Latitude: 44.20305556
Name: MT JACKSON
Longitude: -71.37583333
</description>
        <visibility>1</visibility>
        <Point>
          <coordinates>-71.375833,44.203056</coordinates>
        </Point>
      </Placemark>
      <Placemark id="MT TOM">
        <name>MT TOM</name>
        <description>State: NH
Elevation: 4051
Latitude: 44.21027778
Name: MT TOM
Longitude: -71.44666667
</description>
        <visibility>1</visibility>
        <Point>
          <coordinates>-71.446667,44.210278</coordinates>
        </Point>
      </Placemark>
      <Placemark id="MT MORIAH">
        <name>MT MORIAH</name>
        <description>State: NH
Elevation: 4049
Latitude: 44.34027778
Name: MT MORIAH
Longitude: -71.13222222
</description>
        <visibility>1</visibility>
        <Point>
          <coordinates>-71.132222,44.340278</coordinates>
        </Point>
      </Placemark>
      <Placemark id="MT PASSACONAWAY">
        <name>MT PASSACONAWAY</name>
        <description>State: NH
Elevation: 4043
Latitude: 43.95472222
Name: MT PASSACONAWAY
Longitude: -71.38111111
</description>
        <visibility>1</visibility>
        <Point>
          <coordinates>-71.381111,43.954722</coordinates>
        </Point>
      </Placemark>
      <Placemark id="OWLS HEAD">
        <name>OWLS HEAD</name>
        <description>State: NH
Elevation: 4025
Latitude: 44.14416667
Name: OWLS HEAD
Longitude: -71.60555556
</description>
        <visibility>1</visibility>
        <Point>
          <coordinates>-71.605556,44.144167</coordinates>
        </Point>
      </Placemark>
      <Placemark id="GALEHEAD">
        <name>GALEHEAD</name>
        <description>State: NH
Elevation: 4024
Latitude: 44.185
Name: GALEHEAD
Longitude: -71.57388889
</description>
        <visibility>1</visibility>
        <Point>
          <coordinates>-71.573889,44.185000</coordinates>
        </Point>
      </Placemark>
      <Placemark id="MT WHITEFACE">
        <name>MT WHITEFACE</name>
        <description>State: NH
Elevation: 4020
Latitude: 43.93666667
Name: MT WHITEFACE
Longitude: -71.40805556
</description>
        <visibility>1</visibility>
        <Point>
          <coordinates>-71.408056,43.936667</coordinates>
        </Point>
      </Placemark>
      <Placemark id="MT WAUMBEK">
        <name>MT WAUMBEK</name>
        <description>State: NH
Elevation: 4006
Latitude: 44.4325
Name: MT WAUMBEK
Longitude: -71.41777778
</description>
        <visibility>1</visibility>
        <Point>
          <coordinates>-71.417778,44.432500</coordinates>
        </Point>
      </Placemark>
      <Placemark id="MT ISOLATION">
        <name>MT ISOLATION</name>
        <description>State: NH
Elevation: 4004
Latitude: 44.21472222
Name: MT ISOLATION
Longitude: -71.31
</description>
        <visibility>1</visibility>
        <Point>
          <coordinates>-71.310000,44.214722</coordinates>
        </Point>
      </Placemark>
      <Placemark id="MT TECUMSEH">
        <name>MT TECUMSEH</name>
        <description>State: NH
Elevation: 4003
Latitude: 43.96638889
Name: MT TECUMSEH
Longitude: -71.55694444
</description>
        <visibility>1</visibility>
        <Point>
          <coordinates>-71.556944,43.966389</coordinates>
        </Point>
      </Placemark>
    </Folder>
  </Document>
</kml>
