Rank,Name,Elevation,Prominence,Latitude,Longitude,State
1,SLIDE MTN,4190,3295,41.99916667,-74.38611111,NY
2,HUNTER MTN,4050,2160,42.1775,-74.23083333,NY
3,BLACK DOME,3990,2080,42.27,-74.12333333,NY
4,THOMAS COLE MTN,3950,220,42.27083333,-74.13666667,NY
5,BLACKHEAD,3950,520,42.26777778,-74.10527778,NY
6,WEST KILL MTN,3890,1240,42.16777778,-74.29027778,NY
7,DOUBLETOP MTN,3870,1200,42.0275,-74.52861111,NY
8,CORNELL MTN,3870,620,42.00138889,-74.35722222,NY
9,GRAHAM MTN,3868,898,42.03944444,-74.54972222,NY
10,PLATEAU MTN,3850,1780,42.13805556,-74.17472222,NY
11,TABLE MTN,3847,657,41.95833333,-74.40527778,NY
12,SUGARLOAF MTN,3810,1200,42.13111111,-74.15083333,NY
13,WITTENBERG MTN,3790,240,42.00805556,-74.3475,NY
14,PANTHER MTN,3730,980,42.05833333,-74.39666667,NY
15,BALSAM LAKE MTN,3730,480,42.04555556,-74.595,NY
16,LONE MTN,3721,291,41.96916667,-74.38972222,NY
17,BIG INDIAN MTN,3710,520,42.035,-74.49722222,NY
18,FRIDAY MTN,3694,204,41.98777778,-74.3625,NY
19,RUSK MTN,3690,760,42.20055556,-74.27777778,NY
20,KAATERSKILL HIGH PK,3655,1705,42.16222222,-74.08055556,NY
21,TWIN MTN,3650,840,42.12555556,-74.12972222,NY
22,FIR MTN,3630,440,42.0275,-74.46944444,NY
23,BALSAM CAP,3623,253,41.97694444,-74.35777778,NY
24,NORTH DOME,3610,1160,42.17361111,-74.34944444,NY
25,EAGLE MTN,3610,500,42.06166667,-74.51,NY
26,BEARPEN MTN,3610,1700,42.265,-74.47416667,NY
27,BALSAM MTN,3610,253,42.09055556,-74.48833333,NY
28,INDIAN HEAD MTN,3573,463,42.11638889,-74.115,NY
29,MT SHERRILL,3550,540,42.17555556,-74.37333333,NY
30,HALCOTT MTN,3530,720,42.18027778,-74.43833333,NY
31,VLY MTN,3529,659,42.24583333,-74.44861111,NY
32,WINDHAM HIGH PK,3524,754,42.31472222,-74.14361111,NY
33,ROCKY MTN,3508,218,41.97277778,-74.37333333,NY
34,MILL BROOK RIDGE (E PK),3490,380,42.0525,-74.63333333,NY
35,WOODPECKER RIDGE,3470,320,42.04,-74.61777778,NY
36,DRY BROOK RIDGE,3470,860,42.11277778,-74.60472222,NY
37,ROUNDTOP MTN,3450,260,42.1685,-74.095,NY
38,ROUNDTOP,3450,360,42.29388889,-74.49083333,NY
39,STOPPEL POINT,3430,920,42.225,-74.06555556,NY
40,BELLE AYR MTN,3430,580,42.12861111,-74.51944444,NY
41,HUNTERSFIELD MTN,3423,1493,42.35555556,-74.34638889,NY
42,BEARPEN MTN (S PK),3410,300,42.24638889,-74.49277778,NY
43,HALCOTT MTN (N PK),3408,418,42.1975,-74.4175,NY
44,SPRUCE MTN,3390,280,42.0175,-74.45055556,NY
45,BEAVER KILL RANGE (SW PK),3377,687,41.99361111,-74.59166667,NY
46,VLY MTN (S PK),3370,260,42.22916667,-74.43861111,NY
47,WILDCAT MTN (E PK),3350,280,41.98777778,-74.44083333,NY
48,PLATTEKILL MTN (N PK),3350,1780,42.28555556,-74.66388889,NY
49,MT PISGAH,3345,895,42.22083333,-74.73638889,NY
50,SHULTICE MTN,3290,660,42.31861111,-74.51611111,NY
51,UNNAMED (WINNISOOK LAKE PK),3270,220,42.01777778,-74.42,NY
52,PLATTEKILL MTN,3270,380,42.26638889,-74.64861111,NY
53,MORESVILLE RANGE (N PK),3250,700,42.37444444,-74.565,NY
54,UNNAMED (NARROW NOTCH PK),3230,740,42.33416667,-74.61666667,NY
55,RICHMOND MTN,3230,580,42.36722222,-74.27944444,NY
56,ONTEORA MTN,3230,840,42.22222222,-74.16833333,NY
57,MONGAUP MTN (NE PK),3224,394,41.99,-74.62888889,NY
58,UTSAYANTHA MTN,3214,544,42.39888889,-74.59,NY
59,UNNAMED (HIGH FALLS PK),3211,281,41.99194444,-74.54555556,NY
60,VAN WYCK MTN,3206,356,41.95222222,-74.43583333,NY
61,BURNT KNOB,3190,300,42.30194444,-74.11972222,NY
62,MONGAUP MTN,3177,627,41.99333333,-74.7,NY
63,WILDCAT MTN (W PK),3170,260,41.9775,-74.47611111,NY
64,CRADLE ROCK RIDGE,3170,380,42.03444444,-74.66194444,NY
65,WHITE MAN MTN,3150,340,42.28416667,-74.53416667,NY
66,PINE ISLAND MTN,3150,580,42.22,-74.33305556,NY
67,OVERLOOK MTN,3150,640,42.085,-74.09333333,NY
68,EAST JEWETT RANGE,3150,860,42.23277778,-74.19861111,NY
69,STOPPEL POINT (W PK),3110,300,42.22416667,-74.10111111,NY
70,RED KILL RIDGE,3110,580,42.22888889,-74.53833333,NY
71,PLATTEKILL MTN,3110,520,42.10722222,-74.08638889,NY
72,PACKSADDLE MTN,3110,500,42.2175,-74.35916667,NY
73,COWAN MTN (SW PK),3110,620,42.34,-74.65583333,NY
74,CAVE MTN (E PK),3110,1160,42.28583333,-74.24694444,NY
75,BARKABOOM MTN (E PK),3110,480,42.06194444,-74.70277778,NY
76,ACRA POINT,3110,240,42.29638889,-74.10055556,NY
77,ROSE MTN,3090,780,42.15055556,-74.43833333,NY
78,HIGH POINT,3090,1420,41.92472222,-74.28805556,NY
79,ROUND TOP,3070,300,42.27138889,-74.68361111,NY
80,IRISH MTN,3070,240,42.33555556,-74.52638889,NY
81,CHURCHILL MTN,3070,540,42.38861111,-74.61055556,NY
82,MONGAUP MTN (E PK),3062,292,41.985,-74.64888889,NY
83,DENMAN MTN,3053,763,41.90277778,-74.53972222,NY
84,WOODHULL MTN,3050,400,41.94555556,-74.46416667,NY
85,MORESVILLE RANGE (S PK),3050,300,42.35555556,-74.56611111,NY
86,CAVE MTN (W PK),3050,240,42.28444444,-74.26472222,NY
87,MT WARREN (SE PK),3030,440,42.30583333,-74.69166667,NY
88,MT PISGAH (S PK),3030,240,42.19888889,-74.72361111,NY
89,LITTLE ROCKY MTN,3015,945,41.91833333,-74.33277778,NY
90,UNNAMED (SILVER HOLLOW PK),3010,660,42.1225,-74.2275,NY
91,OLD CLUMP,3010,300,42.30583333,-74.59194444,NY
92,HUBBELL HILL,3010,640,42.21583333,-74.64916667,NY
93,UNNAMED (E GRAY PK),2990,400,42.3116,-74.6185,NY
94,UNNAMED (HODGE POND PK),2985,275,41.98087,-74.73154,NY
95,RED HILL,2980,600,41.924,-74.5173,NY
