Rank,Name,Elevation,Prominence,Latitude,Longitude,State
1,MT WASHINGTON,6288,6153,44.27055556,-71.30388889,NH
2,MT MARCY,5344,4919,44.1125,-73.92416667,NY
3,MT KATAHDIN (BAXTER PK),5268,4293,45.90416667,-68.92194444,ME
4,MT MANSFIELD (CHIN),4393,3643,44.54361111,-72.81472222,VT
5,MT LAFAYETTE,5260,3360,44.16055556,-71.645,NH
6,KILLINGTON PEAK,4235,3325,43.60444444,-72.82055556,VT
7,SLIDE MTN,4190,3295,41.99916667,-74.38611111,NY
8,SUGARLOAF MTN,4250,3180,45.03166667,-70.31361111,ME
9,WHITEFACE MTN,4865,3110,44.36555556,-73.90361111,NY
10,EQUINOX MTN,3850,3060,43.16583333,-73.11805556,VT
11,JAY PK,3858,2970,44.92444444,-72.52638889,VT
12,GIANT MTN,4625,2969,44.16111111,-73.72055556,NY
13,MT MOOSILAUKE,4820,2960,44.02333333,-71.83194444,NH
14,BIGELOW MTN (W PK),4145,2855,45.14666667,-70.28861111,ME
15,DORSET PK,3770,2840,43.30916667,-73.02861111,VT
16,DIX MTN,4839,2822,44.08222222,-73.78666667,NY
17,CARTER DOME,4832,2815,44.26722222,-71.17972222,NH
18,OLD SPECK MTN,4170,2720,44.57083333,-70.95416667,ME
19,MT CABOT,4170,2665,44.50583333,-71.41472222,NH
20,WHITE CAP MTN,3654,2624,45.55444444,-69.24722222,ME
21,COBURN MTN,3730,2520,45.46861111,-70.12694444,ME
22,MT GREYLOCK,3488,2474,42.6374,-73.1662,MA
23,MT PUTNAM (WORCESTER),3642,2472,44.41833333,-72.63888889,VT
24,SADDLEBACK MTN,4120,2446,44.93638889,-70.505,ME
25,SANTANONI PK,4606,2425,44.08222222,-74.13138889,NY
26,KINSMAN MTN (S PK),4358,2418,44.12277778,-71.73694444,NH
27,STRATTON MTN,3940,2415,43.08611111,-72.92555556,VT
28,TRAVELER MTN (THE TRAVELER),3541,2331,46.07277778,-68.845,ME
29,SNOW MTN,3960,2330,45.29138889,-70.70972222,ME
30,MT SHAW,2990,2320,43.74394,-71.274112,NH
31,BLACK MTN,2650,2300,43.6066,-73.5312,NY
32,MT ASCUTNEY,3140,2289,43.44361111,-72.455,VT
33,KIBBY MTN,3654,2264,45.41861111,-70.54472222,ME
34,LYON MTN (NE PK),3830,2247,44.70305556,-73.86472222,NY
35,SNOWY MTN,3901,2243,43.7,-74.38694444,NY
36,MT CARRIGAIN,4700,2240,44.09361111,-71.4475,NH
37,BALDPATE MTN (E PK),3790,2240,44.60916667,-70.89277778,ME
38,EAST MTN,3439,2229,44.66472222,-71.77055556,VT
39,GRASS MTN,3109,2199,43.05277778,-73.22416667,VT
40,BAKER MTN,3521,2191,45.57111111,-69.39444444,ME
41,SMARTS MTN,3238,2188,43.82555556,-72.03916667,NH
42,COLD HOLLOW MTNS,3337,2165,44.7875,-72.68944444,VT
43,HUNTER MTN,4050,2160,42.1775,-74.23083333,NY
44,MONADNOCK MTN,3159,2155,42.86083333,-72.10888889,NH
45,SIGNAL MTN,3370,2140,44.20611111,-72.32555556,VT
46,CAMELS HUMP,4090,2140,44.31944444,-72.88666667,VT
47,BIG SQUAW MTN,3194,2124,45.48388889,-69.71194444,ME
48,ALGONQUIN PK,5114,2113,44.14361111,-73.98694444,NY
49,MT KEARSARGE,2937,2100,43.383245,-71.857142,NH
50,BLACK DOME,3990,2080,42.27,-74.12333333,NY
51,DOUBLETOP MTN,3489,2079,45.93583333,-69.06166667,ME
52,ELEPHANT MTN,3772,2062,44.76805556,-70.78222222,ME
53,MT OSCEOLA,4340,2040,44.00166667,-71.53638889,NH
54,SEWARD MTN,4347,2035,44.15972222,-74.2,NY
55,BOUNDARY BALD MTN,3630,2002,45.76666667,-70.20416667,ME
56,HURRICANE MTN,3678,1988,44.235,-73.71083333,NY
57,GORE MTN,3332,1971,44.91972222,-71.79416667,VT
58,HOFFMAN MTN,3704,1962,43.91138889,-73.81888889,NY
59,BLUE MTN,3750,1939,43.87222222,-74.40138889,NY
60,MT CARDIGAN,3155,1925,43.64916667,-71.91472222,NH
61,BIG SPENCER MTN,3210,1920,45.77555556,-69.44361111,ME
62,MT ELLEN,4083,1873,44.15972222,-72.92916667,VT
63,GORE MTN,3573,1870,43.67333333,-74.04888889,NY
64,BELKNAP MTN,2382,1850,43.518001,-71.369388,NH
65,SADDLEBACK MTN,2998,1848,45.509482,-69.135994,ME
66,MT BLUE,3190,1840,44.72805556,-70.3425,ME
67,MOXIE MTN,2930,1823,45.206782,-69.893914,ME
68,ADAMS MTN,3214,1804,44.04361111,-72.80916667,VT
69,EAST KENNEBAGO MTN,3791,1801,45.12166667,-70.6,ME
70,BUNNEL MTN (BLUE MTN),3730,1800,44.79138889,-71.47916667,NH
71,BOLTON MTN,3690,1800,44.44916667,-72.84027778,VT
72,JACKSON MTN,3568,1798,44.76222222,-70.52055556,ME
73,PLATTEKILL MTN (N PK),3350,1780,42.28555556,-74.66388889,NY
74,PLATEAU MTN,3850,1780,42.13805556,-74.17472222,NY
75,LITTLE SPENCER MTN,3070,1780,45.75833333,-69.53277778,ME
76,BALD MTN,3310,1780,44.76611111,-71.98888889,VT
77,KEARSARGE NORTH,3268,1758,44.10583333,-71.09444444,NH
78,CRANE MTN,3250,1745,43.54472222,-73.96277778,NY
79,MT TECUMSEH,4003,1743,43.96638889,-71.55694444,NH
80,SHAWANGUNK HIGH POINT (SAMS POINT),2289,1739,41.6875,-74.353,NY
81,SPRUCE MTN,2416,1726,44.4076,-70.5845,ME
82,NORTH TURNER MTN,3325,1715,45.9725,-68.84444444,ME
83,LONG MTN (M PK),3661,1711,44.6799,-71.3794,NH
84,CHASE,2439,1709,46.1086,-68.4779,ME
85,KAATERSKILL HIGH PK,3655,1705,42.16222222,-74.08055556,NY
86,MT FIELD,4340,1702,44.19611111,-71.43388889,NH
87,KILBURN MTN,3881,1700,44.30277778,-73.8825,NY
88,VANDERWHACKER MTN,3409,1686,43.89805556,-74.09638889,NY
89,PUFFER MTN,3451,1670,43.66138889,-74.2,NY
90,DEBAR MTN,3310,1660,44.60333333,-74.22083333,NY
91,TICETONYK,2510,1640,42.0032,-74.2175,NY
92,LOWER AZISCOHOS MTN,3190,1640,44.91416667,-71.0025,ME
93,KEMPSHALL MTN,3363,1640,44.02444444,-74.33,NY
94,WAKELY MTN,3766,1631,43.73694444,-74.51527778,NY
95,UNNAMED (W RUTLAND),2110,1620,43.623774,-73.085175,VT
96,EVERETT,2613,1619,42.102,-73.4325,MA
97,PHARAOH,2556,1606,43.8186,-73.658,NY
98,VANDERBURG,1930,1600,43.507,-73.4754,NY
99,LOON LAKE MTNS (M PK),3330,1600,44.55805556,-74.15194444,NY
100,BURKE MTN,3270,1600,44.57055556,-71.89333333,VT
