Rank,Name,Elevation,Prominence,Latitude,Longitude,State
1,MT WASHINGTON,6288,6153,44.27055556,-71.30388889,NH
2,MT ADAMS,5774,843,44.32055556,-71.29194444,NH
3,MT JEFFERSON,5711,741,44.30416667,-71.31722222,NH
4,MT MONROE,5383,275,44.25527778,-71.32166667,NH
5,MT MADISON,5367,476,44.32861111,-71.27722222,NH
6,MT LAFAYETTE,5260,3360,44.16055556,-71.645,NH
7,SOUTH TWIN MTN,4902,1522,44.1875,-71.55527778,NH
8,CARTER DOME,4832,2815,44.26722222,-71.17972222,NH
9,MT MOOSILAUKE,4820,2960,44.02333333,-71.83194444,NH
10,MT EISENHOWER,4780,360,44.24055556,-71.35083333,NH
11,NORTH TWIN MTN,4761,301,44.2025,-71.55833333,NH
12,MT CARRIGAIN,4700,2240,44.09361111,-71.4475,NH
13,MT BOND,4698,318,44.15305556,-71.53166667,NH
14,MIDDLE CARTER MTN,4610,720,44.30305556,-71.16833333,NH
15,MT GUYOT,4580,200,44.16805556,-71.53444444,NH
16,MT BOND (W PK),4540,200,44.15472222,-71.54388889,NH
17,MT GARFIELD,4500,840,44.18722222,-71.61111111,NH
18,MT LIBERTY,4459,399,44.11583333,-71.64277778,NH
19,SOUTH CARTER MTN,4430,240,44.28972222,-71.17694444,NH
20,WILDCAT MTN,4422,1034,44.25916667,-71.20222222,NH
21,MT HANCOCK,4420,1240,44.08333333,-71.49388889,NH
22,KINSMAN MTN (S PK),4358,2418,44.12277778,-71.73694444,NH
23,MT OSCEOLA,4340,2040,44.00166667,-71.53638889,NH
24,MT FIELD,4340,1702,44.19611111,-71.43388889,NH
25,MT FLUME,4328,428,44.10861111,-71.62861111,NH
26,MT PIERCE,4310,250,44.22694444,-71.36611111,NH
27,KINSMAN MTN (N PK),4293,273,44.13333333,-71.73722222,NH
28,MT WILLEY,4285,305,44.18333333,-71.42166667,NH
29,BONDCLIFF,4265,205,44.14055556,-71.54111111,NH
30,ZEALAND RIDGE,4260,240,44.17972222,-71.52194444,NH
31,MT TRIPYRAMID (N PK),4180,1360,43.97305556,-71.44333333,NH
32,MT CABOT,4170,2665,44.50583333,-71.41472222,NH
33,MT OSCEOLA (E PK),4156,336,44.00611111,-71.52111111,NH
34,MT TRIPYRAMID (M PK),4140,280,43.96444444,-71.44055556,NH
35,CANNON MTN,4100,760,44.15666667,-71.69944444,NH
36,WILDCAT RIDGE (D PK),4070,300,44.24916667,-71.22416667,NH
37,MT HALE,4054,634,44.22166667,-71.5125,NH
38,MT JACKSON,4052,352,44.20305556,-71.37583333,NH
39,MT TOM,4051,351,44.21027778,-71.44666667,NH
40,MT MORIAH,4049,922,44.34027778,-71.13222222,NH
41,MT PASSACONAWAY,4043,783,43.95472222,-71.38111111,NH
42,OWLS HEAD,4025,845,44.14416667,-71.60555556,NH
43,GALEHEAD,4024,284,44.185,-71.57388889,NH
44,MT WHITEFACE,4020,600,43.93666667,-71.40805556,NH
45,MT WAUMBEK,4005,1299,44.4325,-71.41777778,NH
46,MT ISOLATION,4004,224,44.21472222,-71.31,NH
47,MT TECUMSEH,4003,1743,43.96638889,-71.55694444,NH
48,SANDWICH MTN,3980,,43.90027778,-71.49861111,NH
49,THE BULGE,3950,,44.51444444,-71.40861111,NH
50,MT NANCY,3926,,44.12222222,-71.405,NH
51,THE HORN,3905,,44.51777778,-71.40055556,NH
52,MT WEEKS (N PK),3901,,44.46138889,-71.38222222,NH
53,MT WEEKS (S PK),3885,,44.44222222,-71.38888889,NH
54,THE SLEEPERS (W PK),3881,,43.95416667,-71.43583333,NH
55,VOSE SPUR,3862,,44.10277778,-71.435,NH
56,THE SLEEPERS (E PK),3860,,43.94666667,-71.42583333,NH
57,PEAK ABOVE THE NUBBLE,3813,,44.22277778,-71.56194444,NH
58,SCAR RIDGE (W PK),3774,,44.02916667,-71.59583333,NH
59,CANNON BALLS (NE PK),3769,,44.15,-71.71055556,NH
60,MT KANCAMAGUS,3763,,44.01111111,-71.47944444,NH
61,MT LOWELL,3740,,44.10361111,-71.41861111,NH
62,MT ANDERSON,3740,,44.1125,-71.41833333,NH
63,SHELBURNE MORIAH MTN,3735,,44.35305556,-71.09916667,NH
64,HUTCHINS MTN MT PILOT,3730,,44.54805556,-71.455,NH
65,BUNNEL MTN (BLUE MTN),3730,1800,44.79138889,-71.47916667,NH
66,MT DARTMOUTH,3727,,44.3025,-71.38416667,NH
67,MT BEMIS,3725,,44.12694444,-71.39416667,NH
68,SUGARLOAF,3710,,44.74416667,-71.46833333,NH
69,MT HUNTINGTON (S PK),3700,,44.04611111,-71.48555556,NH
70,MT HUNTINGTON,3700,,44.05,-71.49166667,NH
71,MT HALE (S PK),3700,,44.20083333,-71.51916667,NH
72,MT FIELD (W PK),3691,,44.18916667,-71.4475,NH
73,MT WEEKS (M PK),3684,,44.44944444,-71.37972222,NH
74,MT DECEPTION (E PK),3671,,44.29361111,-71.42111111,NH
75,GARFIELD RIDGE (W PK),3667,,44.18972222,-71.59583333,NH
76,LONG MTN (W PK),3661,,44.66944444,-71.40277778,NH
77,LONG MTN (M PK),3661,1711,44.6799,-71.3794,NH
78,TERRACE MTN (E PK),3655,,44.47722222,-71.39583333,NH
79,STUB HILL,3627,,45.10666667,-71.09805556,NH
80,SCAR RIDGE (E PK),3620,,44.01916667,-71.56555556,NH
81,MT HITCHCOCK (M PK),3620,,44.07416667,-71.54,NH
82,WHITCOMB MTN (N PK),3615,,44.78555556,-71.37861111,NH
83,PILOT RIDGE (M PK),3615,,44.53388889,-71.43777778,NH
84,NORTH BALDFACE,3610,,44.24277778,-71.0875,NH
85,GORE MTN,3610,,44.77388889,-71.46583333,NH
86,PLINY MTN,3606,,44.41666667,-71.39333333,NH
87,SCAUR PK,3605,,43.985,-71.45055556,NH
88,WEST PK,3593,,44.75416667,-71.49638889,NH
89,GARFIELD RIDGE (E PK),3590,,44.19277778,-71.5825,NH
90,CHERRY MTN (MT MARTHA),3572,1574,44.33083333,-71.49972222,NH
91,SOUTH BALDFACE,3570,,44.23083333,-71.07833333,NH
92,PILOT RIDGE (E PK),3570,,44.52833333,-71.42861111,NH
93,MT SUCCESS,3565,,44.47138889,-71.03972222,NH
94,MT CLOUGH,3561,,44.02916667,-71.87277778,NH
95,THE FOOL KILLER,3548,,43.97138889,-71.42694444,NH
96,THE CAPTAIN CARRIGAIN POND PK,3540,,44.08388889,-71.46277778,NH
97,SABLE MTN,3519,,44.21472222,-71.09638889,NH
98,UNNAMED PK UNKNOWN POND,3510,,44.52861111,-71.38083333,NH
99,SAVAGE MTN,3510,,44.73194444,-71.545,NH
100,SCAR RIDGE (M PK),3500,,44.02527778,-71.58083333,NH
101,MT WOLF,3500,,44.0775,-71.75388889,NH
102,MT HITCHCOCK (S PK),3500,,44.06638889,-71.52861111,NH
103,MT CHOCORUA,3500,,43.95444444,-71.27388889,NH
104,DIXVILLE PK,3490,,44.83583333,-71.31861111,NH
105,MT KELSEY,3472,,44.80138889,-71.31444444,NH
106,STAIRS MTN,3463,,44.155,-71.31888889,NH
107,CARR MTN,3453,1480,43.88472222,-71.84388889,NH
108,PERCY PKS (N PK),3430,,44.66305556,-71.43555556,NH
109,STUB HILL (N PK),3422,,45.11833333,-71.1025,NH
110,EAGLE CLIFF,3420,,44.16861111,-71.67194444,NH
111,MT RESOLUTION,3415,,44.1475,-71.31444444,NH
112,WHITEWALL MTN,3405,,44.1825,-71.4725,NH
113,MT HUNTINGTON (W PK),3393,,44.04361111,-71.50666667,NH
114,TEAPOT MTN,3390,,44.7475,-71.55666667,NH
115,SALMON MTN,3390,,45.24305556,-71.13388889,NH
116,RICE MTN,3390,,44.85277778,-71.24083333,NH
117,MAGALLOWAY MTN,3383,,45.06333333,-71.16305556,NH
118,MILLEN HILL,3376,,44.29361111,-71.36527778,NH
119,MT TREMONT,3371,1591,44.05333333,-71.3575,NH
120,WHITCOMB MTN (M PK),3354,,44.74361111,-71.37055556,NH
121,LITTLE WILDCAT MTN,3350,,44.27722222,-71.21,NH
122,DUCK POND MTN,3340,,44.10694444,-71.39527778,NH
123,WHITCOMB MTN (S PK),3338,,44.73,-71.37194444,NH
124,CHANDLER MTN,3335,,44.20222222,-71.10638889,NH
125,MT HITCHCOCK (E PK),3331,,44.07611111,-71.51472222,NH
126,FLAT MTN,3331,,43.92861111,-71.46222222,NH
127,BLUE MTN (W PK),3326,,44.79027778,-71.50555556,NH
128,MT KINEO,3313,,43.92916667,-71.79888889,NH
129,MT HUNTINGTON (E PK),3306,,44.03888889,-71.46944444,NH
130,BLACK MTN,3304,,44.22527778,-71.15611111,NH
131,BIG COOLIDGE MTN,3294,,44.07944444,-71.64305556,NH
132,CRYSTAL MTN (N PK),3279,,44.9375,-71.21027778,NH
133,UNNAMED PK BOUNDARY POND,3277,,45.27055556,-71.11666667,NH
134,KEARSARGE NORTH,3268,1758,44.10583333,-71.09444444,NH
135,BLACK CRESCENT MTN (S PK),3264,,44.43944444,-71.27111111,NH
136,BIG BICKFORD MTN,3261,,44.19694444,-71.65472222,NH
137,MT CRESCENT,3251,,44.40416667,-71.29472222,NH
138,ENGINE HILL (S PK),3244,,44.19388889,-71.28277778,NH
139,SMARTS MTN,3238,2188,43.82555556,-72.03916667,NH
140,PERCY PKS (S PK),3234,,44.65638889,-71.43555556,NH
141,DIAMOND RIDGE,3230,,45.09194444,-71.13611111,NH
142,CRYSTAL MTN (NW PK),3230,,44.97222222,-71.23027778,NH
143,MT CUSHMAN,3221,,43.95833333,-71.77916667,NH
144,BEAR MTN,3220,1440,44.02944444,-71.30222222,NH
145,WEST ROYCE MTN,3210,,44.30222222,-71.01861111,NH
146,MT PAUGUS,3198,,43.95111111,-71.32944444,NH
147,NORTH MOAT MTN,3196,,44.04305556,-71.215,NH
148,BLACK CRESCENT MTN (N PK),3196,,44.44666667,-71.28027778,NH
149,MT HITCHCOCK (N PK),3194,,44.08722222,-71.54472222,NH
150,CAVE MTN,3191,,44.88388889,-71.26611111,NH
151,DEER MTN (S PK),3190,,45.18972222,-71.22583333,NH
152,BLUE MTN (N PK),3190,,44.82027778,-71.49305556,NH
153,MONADNOCK MTN,3159,2155,42.86083333,-72.10888889,NH
154,MT CARDIGAN,3155,1925,43.64916667,-71.91472222,NH
155,MT HEDGEHOG,3140,,43.94138889,-71.365,NH
156,MT KENT,3137,,45.23138889,-71.095,NH
157,MT CRAWFORD,3119,,44.13666667,-71.33305556,NH
158,BLUE RIDGE (N PK),3102,,44.95583333,-71.24694444,NH
159,MT TUCKER (W PK),3097,,44.94972222,-71.16666667,NH
160,MT RANDOLPH (N PK),3097,,44.39666667,-71.31694444,NH
161,BALDHEAD MTN (S PK),3097,,44.82222222,-71.36777778,NH
162,MT PISGAH,3081,,44.99555556,-71.21305556,NH
163,LOON MTN (N PK),3065,,44.03611111,-71.62166667,NH
164,BALD CAP,3065,,44.44944444,-71.10305556,NH
165,MT HITCHCOCK (W PK),3064,,44.07194444,-71.55333333,NH
166,WOLF CUB GORDON POND PEAK,3063,,44.07166667,-71.74,NH
167,WHALEBACK MTN (S PK),3060,,44.08,-71.60888889,NH
168,NORTH DOUBLEHEAD,3053,,44.16777778,-71.13055556,NH
169,UNNAMED PK SHOAL POND,3051,,44.14972222,-71.48138889,NH
170,SPRUCE MTN (E PK),3010,,44.72055556,-71.54888889,NH
171,MT DURBAN,3010,,45.29527778,-71.10527778,NH
172,BLUE RIDGE (N PK),3009,,44.0625,-71.76666667,NH
173,MT ROSEBROOK,3004,,44.24305556,-71.47166667,NH
174,MT PARKER,3004,,44.12361111,-71.29916667,NH
175,JEFFERS,2994,714,44.033852,-71.902122,NH
176,MT SHAW,2990,2340,43.74394,-71.274112,NH
177,SUGAR HILL,2988,715,44.925,-71.31,NH
178,UNNAMED (SCOTT BOG PK),2981,218,45.218,-71.188,NH
179,BARTLETT HAYSTACK,2980,840,44.0519,-71.3271,NH
180,SOUTH CRYSTAL,2970,400,44.9225,-71.2131,NH
181,STAIRS (E PK) (THE FOOT STOOL),2967,200,44.15998,-71.302772,NH
182,HOWE,2966,206,44.3515,-71.0712,NH
183,ROGERS LEDGE,2965,495,44.55,-71.3619,NH
184,BLACK CRESCENT (S PK),2963,215,44.3515,-71.0712,NH
185,OWLS CLIFF,2951,280,44.044322,-71.358991,NH
186,FLAT MTN (S PK),2950,600,43.904108,-71.444693,NH
187,UNNAMED (PERRY PONDS PK),2948,498,45.2374,-71.2201,NH
188,MAGALLOWAY (W PK),2945,221,45.067,-71.181,NH
189,BLACK (NW PK),2944,774,44.8482,-71.1899,NH
190,BALDFACE (W PK),2941,351,44.2369,-71.1117,NH
191,EASTMAN,2939,369,44.2156,-71.062,NH
192,SOUTH DOUBLEHEAD,2938,221,44.161509,-71.131923,NH
193,MT KEARSARGE,2937,2100,43.383245,-71.857142,NH
194,BLACK MTN,2937,317,44.0483,-71.605,NH
195,PROSPECT HILL (W PK),2930,174,45.252,-71.233,NH
196,GREENS CLIFF,2926,946,44.0349,-71.4018,NH
197,TUMBLE DICK MTN,2910,200,44.9311,-71.2989,NH
198,BIG ATTITASH,2910,380,44.0465,-71.2308,NH
199,CUBE,2909,859,43.8858,-72.0233,NH
200,STINSON,2900,1520,43.8346,-71.779,NH
201,NORTH BALD CAP,2893,343,44.466,-71.0736,NH
202,SHOAL POND PK (S PK),2891,351,44.1309,-71.4857,NH
203,MT PATIENCE (W PK),2889,759,44.7442,-71.2836,NH
204,MT DUSTAN,2878,1148,44.8585,-71.0811,NH
205,MT WILLARD,2865,285,44.2039,-71.4132,NH
206,WHITCOMB MTN (W PK),2850,320,44.7135,-71.412,NH
207,SAVAGE (E PK),2840,230,44.735638,-71.530008,NH
208,MUISE (W PK),2830,266,44.794,-71.411,NH
209,BLACK MTN (BENTON),2830,660,44.0744,-71.9226,NH
210,DEER RIDGE,2808,192,44.5309,-71.3351,NH
211,POND HILL,2805,296,44.4182,-71.3549,NH
212,MIDDLE MOAT MTN,2805,335,44.0235,-71.1987,NH
213,UNNAMED (NORTON POOL PK),2792,442,45.1831,-71.1014,NH
214,SAVAGE (EE PK),2790,240,44.741734,-71.52194,NH
215,CHASE MTN,2790,460,44.9015,-71.1396,NH
216,CAMBRIDGE BLACK MTN,2790,700,44.627,-71.0792,NH
217,UNNAMED (STAG HOLLOW PK),2782,183,44.382796,-71.337919,NH
218,FARAWAY MTN,2782,413,43.7615,-71.3116,NH
219,MT WONALANCET,2780,200,43.9271,-71.3765,NH
220,DIXVILLE PEAK (SW PK),2775,205,44.841,-71.353,NH
221,VAN DYCK MTN,2770,220,44.911,-71.314,NH
222,GREEN MTN,2762,222,43.9576,-71.7537,NH
223,POTASH MTN (S PK),2760,300,43.9724,-71.3976,NH
224,CROYDON PEAK,2756,1732,43.4819,-72.2195,NH
225,MT PATIENCE,2750,520,44.7457,-71.2534,NH
226,BLACK MTN,2750,260,44.8344,-71.1763,NH
227,UNNAMED (SCOTT BOG PK),2749,218,45.218,-71.188,NH
228,MT OSCAR,2746,206,44.2505,-71.4817,NH
229,UNNAMED (DIAMOND RIDGE SE PK),2745,555,45.056,-71.0837,NH
230,UNNAMED (KINSMAN NOTCH PK),2740,220,44.045648,-71.781535,NH
231,SQUARE MTN,2735,405,44.5572,-71.3441,NH
232,SUNAPEE,2726,1476,43.3138,-72.0743,NH
233,IRON MTN,2726,946,44.1342,-71.2392,NH
234,ABENIKI MTN,2723,453,44.8778,-71.306,NH
235,MT METALAK,2721,251,44.7535,-71.2592,NH
236,PIERMONT MTN,2717,1547,43.9592,-71.9951,NH
237,CRYSTAL MTN (SS PK),2716,326,44.8916,-71.2,NH
238,PROSPECT MTN,2714,344,45.1577,-71.0734,NH
239,UNNAMED (GARFIELD FALLS E PK),2708,458,45.027,-71.0877,NH
240,SIGNAL MTN,2702,881,44.7611,-71.2273,NH
241,POTASH,2700,240,43.982,-71.3905,NH
242,UNNAMED (TRESTLE BROOK),2699,509,45.2,-71.2765,NH
243,DIXVILLE MTN (W PK),2699,269,44.853,-71.347,NH
244,BLACK SNOUT MTN,2689,219,43.7829,-71.3281,NH
245,ORANGE MTN,2684,254,43.6327,-71.9104,NH
246,TABLE MTN,2675,495,44.0317,-71.2625,NH
247,GRANTHAM MTN,2667,433,43.5002,-72.2035,NH
248,DEAD WATER RIDGE (S PK),2654,404,44.9463,-71.3422,NH
249,MT TUCKER (S PK),2650,300,44.911,-71.1682,NH
250,CATALOUCHEE,2647,337,43.6774,-71.9159,NH
251,COLE HILL,2645,1305,44.1664,-71.8142,NH
252,CASCADE MTN,2631,621,44.434,-71.151,NH
253,MT ISRAEL,2630,1200,43.8455,-71.4719,NH
254,MONTAGNE DES LIGNES,2630,220,45.254,-71.1976,NH
255,BEAMAN HILL,2630,240,45.1668,-71.1178,NH
256,BARTLETT HAYSTACK (N PK),2615,200,44.058201,-71.320839,NH
257,MUDGET MTN,2610,640,44.9682,-71.3767,NH
258,BLACK HILL,2602,492,43.8615,-71.9969,NH
259,UNNAMED (CHERRY APPLEBY),2598,196,44.312088,-71.470313,NH
260,TRIDENT,2590,360,44.4432,-71.1248,NH
261,MT SHAW,2585,455,44.1355,-71.0657,NH
262,HAYSTACK MTN,2582,192,45.0852,-71.1077,NH
263,UNNAMED (LOOMIS VALLEY PK),2570,202,45.085218,-71.107635,NH
264,HOWE (E PK),2567,239,44.347,-71.048,NH
265,DIAMOND RIDGE,2558,328,44.9542,-71.3006,NH
266,MT HAYES,2555,605,44.4156,-71.1601,NH
267,UNNAMED (BIG BROOK BOG PK),2548,358,45.1571,-71.245,NH
268,MT WEETAMOO,2548,928,43.851,-71.5731,NH
269,HALFMOON,2545,535,44.9297,-71.0615,NH
270,BLUE MTN,2540,240,43.9764,-71.2526,NH
271,MIDDLE SUGARLOAF,2539,279,44.2513,-71.5176,NH
272,UNNAMED (PESKEY BROOK PK),2535,290,44.995,-71.171,NH
273,UNNAMED (BLUE BROOK SHELTER PK),2532,252,44.281943,-71.068419,NH
274,HEDGEHOG MTN,2532,472,43.9743,-71.3671,NH
275,GOVES MTN,2529,315,43.2643,-72.0963,NH
276,BLACK MTN,2525,175,44.9155,-71.1155,NH
277,CEDAR MTN,2523,313,44.9847,-71.2789,NH
278,THE TWINS (N PK),2519,289,44.1283,-71.0684,NH
279,MILL MTN,2517,847,44.5962,-71.386,NH
280,NATHAN POND RIDGE,2510,420,44.9199,-71.2682,NH
281,MOAT MTN (SW PK),2507,211,44.024,-71.218,NH
282,MT HOPE,2505,445,44.1072,-71.3344,NH
283,LITTLE ATTITASH MTN,2504,254,44.0641,-71.2204,NH
284,KELSEY MTN (E PK),2497,382,44.8031,-71.2685,NH
285,UNNAMED (BEAVER POND PK),2494,344,45.0369,-71.2164,NH
286,UNNAMED (E HORN BROOK PK),2492,442,44.979,-71.0857,NH
287,ACTEON RIDGE,2489,270,43.904,-71.541,NH
288,WILLOUGHBY MTN (W PK),2488,184,43.843,-71.85,NH
289,JERICHO MTN,2487,637,44.467,-71.2223,NH
290,RICKERS KNOLL,2477,207,44.1113,-71.077,NH
291,STRATFORD MTN (S PK),2470,480,44.6785,-71.4667,NH
292,LOVEWELL MTN,2461,846,43.203509,-72.061085,NH
293,UNNAMED (LITTLE DIAMOND POND PK),2460,193,44.949,-71.321,NH
294,DEAD WATER RIDGE (N PK),2460,225,44.97,-71.32,NH
295,BALD MTN,2450,600,43.8005,-71.2658,NH
296,SUGAR MTN,2449,399,44.4461,-71.2361,NH
297,NATHAN POND RIDGE (SE PK),2449,242,44.909,-71.249,NH
298,RUSSELL MTN (E PK),2440,190,44.018,-71.644,NH
299,UNNAMED (JORDEN HILL),2437,653,44.8481,-71.5077,NH
300,WEETAMOO (E PK),2435,245,43.853,-71.555,NH
