Rank,Name,Elevation,Latitude,Longitude,State,Prominence
1,MT WASHINGTON,6288,44.27055556,-71.30388889,NH,6150
2,MT ADAMS,5774,44.32055556,-71.29194444,NH,
3,MT JEFFERSON,5712,44.30416667,-71.31722222,NH,
4,MT MONROE,5384,44.25527778,-71.32166667,NH,
5,MT MADISON,5367,44.32861111,-71.27722222,NH,
6,MT LAFAYETTE,5260,44.16055556,-71.645,NH,3360
7,MT LINCOLN,5089,44.14888889,-71.645,NH,
8,SOUTH TWIN MTN,4902,44.1875,-71.55527778,NH,1522
9,CARTER DOME,4832,44.26722222,-71.17972222,NH,2821
10,MT MOOSILAUKE,4802,44.02333333,-71.83194444,NH,2932
11,MT EISENHOWER,4780,44.24055556,-71.35083333,NH,
12,NORTH TWIN MTN,4761,44.2025,-71.55833333,NH,
13,MT CARRIGAIN,4700,44.09361111,-71.4475,NH,2240
14,MT BOND,4698,44.15305556,-71.53166667,NH,
15,MIDDLE CARTER MTN,4610,44.30305556,-71.16833333,NH,
16,MT GUYOT,4580,44.16805556,-71.53444444,NH,
17,MT BOND (W PK),4540,44.15472222,-71.54388889,NH,
18,MT GARFIELD,4500,44.18722222,-71.61111111,NH,
19,MT LIBERTY,4459,44.11583333,-71.64277778,NH,
20,SOUTH CARTER MTN,4430,44.28972222,-71.17694444,NH,
21,WILDCAT MTN,4422,44.25916667,-71.20222222,NH,
22,MT HANCOCK,4420,44.08333333,-71.49388889,NH,
23,KINSMAN MTN (S PK),4358,44.12277778,-71.73694444,NH,2420
24,MT OSCEOLA,4340,44.00166667,-71.53638889,NH,2040
25,MT FIELD,4340,44.19611111,-71.43388889,NH,1702
26,MT FLUME,4328,44.10861111,-71.62861111,NH,
27,MT HANCOCK (S PK),4319,44.07333333,-71.4875,NH,
28,MT PIERCE,4310,44.22694444,-71.36611111,NH,
29,KINSMAN MTN (N PK),4293,44.13333333,-71.73722222,NH,
30,MT WILLEY,4285,44.18333333,-71.42166667,NH,
31,"MT BOND, THE CLIFFS",4265,44.14055556,-71.54111111,NH,
32,ZEALAND RIDGE,4260,44.17972222,-71.52194444,NH,
33,MT TRIPYRAMID (N PK),4180,43.97305556,-71.44333333,NH,
34,MT CABOT,4170,44.50583333,-71.41472222,NH,2670
35,MT OSCEOLA (E PK),4156,44.00611111,-71.52111111,NH,
36,MT TRIPYRAMID (M PK),4140,43.96444444,-71.44055556,NH,
37,CANNON MTN,4100,44.15666667,-71.69944444,NH,
38,WILDCAT RIDGE (D PK),4070,44.24916667,-71.22416667,NH,
39,MT HALE,4054,44.22166667,-71.5125,NH,
40,MT JACKSON,4052,44.20305556,-71.37583333,NH,
41,MT TOM,4051,44.21027778,-71.44666667,NH,
42,MT MORIAH,4049,44.34027778,-71.13222222,NH,
43,MT PASSACONAWAY,4043,43.95472222,-71.38111111,NH,
44,OWLS HEAD,4025,44.14416667,-71.60555556,NH,
45,GALEHEAD,4024,44.185,-71.57388889,NH,
46,MT WHITEFACE,4020,43.93666667,-71.40805556,NH,
47,MT WAUMBEK,4006,44.4325,-71.41777778,NH,
48,MT ISOLATION,4004,44.21472222,-71.31,NH,
49,MT TECUMSEH,4003,43.96638889,-71.55694444,NH,1743
50,SANDWICH MTN,3980,43.90027778,-71.49861111,NH,
51,THE BULGE,3950,44.51444444,-71.40861111,NH,
52,MT NANCY,3926,44.12222222,-71.405,NH,
53,THE HORN,3905,44.51777778,-71.40055556,NH,
54,MT WEEKS (N PK),3901,44.46138889,-71.38222222,NH,
55,MT WEEKS (S PK),3885,44.44222222,-71.38888889,NH,
56,THE SLEEPERS (W PK),3881,43.95416667,-71.43583333,NH,
57,VOSE SPUR,3862,44.10277778,-71.435,NH,
58,THE SLEEPERS (E PK),3860,43.94666667,-71.42583333,NH,
59,PEAK ABOVE THE NUBBLE,3813,44.22277778,-71.56194444,NH,
60,SCAR RIDGE (W PK),3774,44.02916667,-71.59583333,NH,
61,CANNON BALLS (NE PK),3769,44.15,-71.71055556,NH,
62,MT KANCAMAGUS,3763,44.01111111,-71.47944444,NH,
63,MT LOWELL,3740,44.10361111,-71.41861111,NH,
64,MT ANDERSON,3740,44.1125,-71.41833333,NH,
65,SHELBURNE MORIAH MTN,3735,44.35305556,-71.09916667,NH,
66,HUTCHINS MTN MT PILOT,3730,44.54805556,-71.455,NH,
67,BUNNEL MTN (BLUE MTN),3730,44.79138889,-71.47916667,NH,1800
68,MT DARTMOUTH,3727,44.3025,-71.38416667,NH,
69,MT BEMIS,3725,44.12694444,-71.39416667,NH,
70,SUGARLOAF,3710,44.74416667,-71.46833333,NH,
71,MT HUNTINGTON (S PK),3700,44.04611111,-71.48555556,NH,
72,MT HUNTINGTON,3700,44.05,-71.49166667,NH,
73,MT HALE (S PK),3700,44.20083333,-71.51916667,NH,
74,MT FIELD (W PK),3691,44.18916667,-71.4475,NH,
75,MT WEEKS (M PK),3684,44.44944444,-71.37972222,NH,
76,MT DECEPTION (E PK),3671,44.29361111,-71.42111111,NH,
77,GARFIELD RIDGE (W PK),3667,44.18972222,-71.59583333,NH,
78,LONG MTN (W PK),3661,44.66944444,-71.40277778,NH,
79,LONG MTN (M PK),3661,44.6799,-71.3794,NH,1711
80,TERRACE MTN (E PK),3655,44.47722222,-71.39583333,NH,
81,STUB HILL,3627,45.10666667,-71.09805556,NH,
82,SCAR RIDGE (E PK),3620,44.01916667,-71.56555556,NH,
83,MT HITCHCOCK (M PK),3620,44.07416667,-71.54,NH,
84,WHITCOMB MTN (N PK),3615,44.78555556,-71.37861111,NH,
85,PILOT RIDGE (M PK),3615,44.53388889,-71.43777778,NH,
86,NORTH BALDFACE,3610,44.24277778,-71.0875,NH,
87,GORE MTN,3610,44.77388889,-71.46583333,NH,
88,PLINY MTN,3606,44.41666667,-71.39333333,NH,
89,SCAUR PK,3605,43.985,-71.45055556,NH,
90,WEST PK,3593,44.75416667,-71.49638889,NH,
91,GARFIELD RIDGE (E PK),3590,44.19277778,-71.5825,NH,
92,CHERRY MTN (MT MARTHA),3572,44.33083333,-71.49972222,NH,1574
93,SOUTH BALDFACE,3570,44.23083333,-71.07833333,NH,
94,PILOT RIDGE (E PK),3570,44.52833333,-71.42861111,NH,
95,MT SUCCESS,3565,44.47138889,-71.03972222,NH,
96,MT CLOUGH,3561,44.02916667,-71.87277778,NH,
97,THE FOOL KILLER,3548,43.97138889,-71.42694444,NH,
98,THE CAPTAIN CARRIGAIN POND PK,3540,44.08388889,-71.46277778,NH,
99,SABLE MTN,3519,44.21472222,-71.09638889,NH,
100,UNNAMED PK UNKNOWN POND,3510,44.52861111,-71.38083333,NH,
101,SAVAGE MTN,3510,44.73194444,-71.545,NH,
102,SCAR RIDGE (M PK),3500,44.02527778,-71.58083333,NH,
103,MT WOLF,3500,44.0775,-71.75388889,NH,
104,MT HITCHCOCK (S PK),3500,44.06638889,-71.52861111,NH,
105,MT CHOCORUA,3500,43.95444444,-71.27388889,NH,
106,DIXVILLE PK,3490,44.83583333,-71.31861111,NH,
107,MT KELSEY,3472,44.80138889,-71.31444444,NH,
108,STAIRS MTN,3463,44.155,-71.31888889,NH,
109,CARR MTN,3453,43.88472222,-71.84388889,NH,1480
110,PERCY PKS (N PK),3430,44.66305556,-71.43555556,NH,
111,STUB HILL (N PK),3422,45.11833333,-71.1025,NH,
112,EAGLE CLIFF,3420,44.16861111,-71.67194444,NH,
113,MT RESOLUTION,3415,44.1475,-71.31444444,NH,
114,WHITEWALL MTN,3405,44.1825,-71.4725,NH,
115,MT HUNTINGTON (W PK),3393,44.04361111,-71.50666667,NH,
116,TEAPOT MTN,3390,44.7475,-71.55666667,NH,
117,SALMON MTN,3390,45.24305556,-71.13388889,NH,
118,RICE MTN,3390,44.85277778,-71.24083333,NH,
119,MAGALLOWAY MTN,3383,45.06333333,-71.16305556,NH,
120,MILLEN HILL,3376,44.29361111,-71.36527778,NH,
121,MT TREMONT,3371,44.05333333,-71.3575,NH,1591
122,WHITCOMB MTN (M PK),3354,44.74361111,-71.37055556,NH,
123,LITTLE WILDCAT MTN,3350,44.27722222,-71.21,NH,
124,DUCK POND MTN,3340,44.10694444,-71.39527778,NH,
125,WHITCOMB MTN (S PK),3338,44.73,-71.37194444,NH,
126,CHANDLER MTN,3335,44.20222222,-71.10638889,NH,
127,MT HITCHCOCK (E PK),3331,44.07611111,-71.51472222,NH,
128,FLAT MTN,3331,43.92861111,-71.46222222,NH,
129,BLUE MTN (W PK),3326,44.79027778,-71.50555556,NH,
130,MT KINEO,3313,43.92916667,-71.79888889,NH,
131,MT HUNTINGTON (E PK),3306,44.03888889,-71.46944444,NH,
132,BLACK MTN,3304,44.22527778,-71.15611111,NH,
133,BIG COOLIDGE MTN,3294,44.07944444,-71.64305556,NH,
134,CRYSTAL MTN (N PK),3279,44.9375,-71.21027778,NH,
135,UNNAMED PK BOUNDARY POND,3277,45.27055556,-71.11666667,NH,
136,KEARSARGE NORTH,3268,44.10583333,-71.09444444,NH,1758
137,BLACK CRESCENT MTN (S PK),3264,44.43944444,-71.27111111,NH,
138,BIG BICKFORD MTN,3261,44.19694444,-71.65472222,NH,
139,MT CRESCENT,3251,44.40416667,-71.29472222,NH,
140,ENGINE HILL (S PK),3244,44.19388889,-71.28277778,NH,
141,SMARTS MTN,3238,43.82555556,-72.03916667,NH,2190
142,PERCY PKS (S PK),3234,44.65638889,-71.43555556,NH,
143,DIAMOND RIDGE,3230,45.09194444,-71.13611111,NH,
144,CRYSTAL MTN (NW PK),3230,44.97222222,-71.23027778,NH,
145,MT CUSHMAN,3221,43.95833333,-71.77916667,NH,
146,BEAR MTN,3220,44.02944444,-71.30222222,NH,1440
147,WEST ROYCE MTN,3210,44.30222222,-71.01861111,NH,
148,MT PAUGUS,3198,43.95111111,-71.32944444,NH,
149,NORTH MOAT MTN,3196,44.04305556,-71.215,NH,
150,BLACK CRESCENT MTN (N PK),3196,44.44666667,-71.28027778,NH,
151,MT HITCHCOCK (N PK),3194,44.08722222,-71.54472222,NH,
152,CAVE MTN,3191,44.88388889,-71.26611111,NH,
153,DEER MTN (S PK),3190,45.18972222,-71.22583333,NH,
154,BLUE MTN (N PK),3190,44.82027778,-71.49305556,NH,
155,MONADNOCK MTN,3159,42.86083333,-72.10888889,NH,2160
156,MT CARDIGAN,3155,43.64916667,-71.91472222,NH,1922
157,MT HEDGEHOG,3140,43.94138889,-71.365,NH,
158,MT KENT,3137,45.23138889,-71.095,NH,
159,MT CRAWFORD,3119,44.13666667,-71.33305556,NH,
160,BLUE RIDGE (N PK),3102,44.95583333,-71.24694444,NH,
161,MT TUCKER (W PK),3097,44.94972222,-71.16666667,NH,
162,MT RANDOLPH (N PK),3097,44.39666667,-71.31694444,NH,
163,BALDHEAD MTN (S PK),3097,44.82222222,-71.36777778,NH,
164,MT PISGAH,3081,44.99555556,-71.21305556,NH,
165,LOON MTN (N PK),3065,44.03611111,-71.62166667,NH,
166,BALD CAP,3065,44.44944444,-71.10305556,NH,
167,MT HITCHCOCK (W PK),3064,44.07194444,-71.55333333,NH,
168,WOLF CUB GORDON POND PEAK,3063,44.07166667,-71.74,NH,
169,WHALEBACK MTN (S PK),3060,44.08,-71.60888889,NH,
170,NORTH DOUBLEHEAD,3053,44.16777778,-71.13055556,NH,
171,UNNAMED PK SHOAL POND,3051,44.14972222,-71.48138889,NH,
172,SPRUCE MTN (E PK),3010,44.72055556,-71.54888889,NH,
173,MT DURBAN,3010,45.29527778,-71.10527778,NH,
174,BLUE RIDGE (N PK),3009,44.0625,-71.76666667,NH,
175,MT ROSEBROOK,3004,44.24305556,-71.47166667,NH,
176,MT PARKER,3004,44.12361111,-71.29916667,NH,
177,JEFFERS,2994,44.033852,-71.902122,NH,714
178,MT SHAW,2990,43.74394,-71.274112,NH,2320
179,SUGAR HILL,2988,44.925,-71.31,NH,715
180,UNNAMED (SCOTT BOG PK),2981,45.218,-71.188,NH,218
181,BARTLETT HAYSTACK,2980,44.0519,-71.3271,NH,840
182,SOUTH CRYSTAL,2970,44.9225,-71.2131,NH,400
183,STAIRS (E PK) (THE FOOT STOOL),2967,44.15998,-71.302772,NH,200
184,HOWE,2966,44.3515,-71.0712,NH,206
185,ROGERS LEDGE,2965,44.55,-71.3619,NH,495
186,BLACK CRESCENT (S PK),2963,44.3515,-71.0712,NH,215
187,OWLS CLIFF,2951,44.044322,-71.358991,NH,280
188,FLAT MTN (S PK),2950,43.904108,-71.444693,NH,600
189,UNNAMED (PERRY PONDS PK),2948,45.2374,-71.2201,NH,498
190,MAGALLOWAY (W PK),2945,45.067,-71.181,NH,221
191,BLACK (NW PK),2944,44.8482,-71.1899,NH,774
192,BALDFACE (W PK),2941,44.2369,-71.1117,NH,351
193,EASTMAN,2939,44.2156,-71.062,NH,369
194,SOUTH DOUBLEHEAD,2938,44.161509,-71.131923,NH,221
195,MT KEARSARGE,2937,43.383245,-71.857142,NH,2100
196,BLACK MTN,2937,44.0483,-71.605,NH,317
197,PROSPECT HILL (W PK),2930,45.252,-71.233,NH,174
198,GREENS CLIFF,2926,44.0349,-71.4018,NH,946
199,TUMBLE DICK MTN,2910,44.9311,-71.2989,NH,200
200,BIG ATTITASH,2910,44.0465,-71.2308,NH,380
201,CUBE,2909,43.8858,-72.0233,NH,859
202,STINSON,2900,43.8346,-71.779,NH,1520
203,NORTH BALD CAP,2893,44.466,-71.0736,NH,343
204,SHOAL POND PK (S PK),2891,44.1309,-71.4857,NH,351
205,MT PATIENCE (W PK),2889,44.7442,-71.2836,NH,759
206,MT DUSTAN,2878,44.8585,-71.0811,NH,1148
207,MT WILLARD,2865,44.2039,-71.4132,NH,285
208,WHITCOMB MTN (W PK),2850,44.7135,-71.412,NH,320
209,SAVAGE (E PK),2840,44.735638,-71.530008,NH,230
210,MUISE (W PK),2830,44.794,-71.411,NH,266
211,BLACK MTN (BENTON),2830,44.0744,-71.9226,NH,660
212,DEER RIDGE,2808,44.5309,-71.3351,NH,192
213,POND HILL,2805,44.4182,-71.3549,NH,296
214,MIDDLE MOAT MTN,2805,44.0235,-71.1987,NH,335
215,UNNAMED (NORTON POOL PK),2792,45.1831,-71.1014,NH,442
216,SAVAGE (EE PK),2790,44.741734,-71.52194,NH,240
217,CHASE MTN,2790,44.9015,-71.1396,NH,460
218,CAMBRIDGE BLACK MTN,2790,44.627,-71.0792,NH,700
219,UNNAMED (STAG HOLLOW PK),2782,44.382796,-71.337919,NH,183
220,FARAWAY MTN,2782,43.7615,-71.3116,NH,413
221,MT WONALANCET,2780,43.9271,-71.3765,NH,200
222,DIXVILLE PEAK (SW PK),2775,44.841,-71.353,NH,205
223,VAN DYCK MTN,2770,44.911,-71.314,NH,220
224,GREEN MTN,2762,43.9576,-71.7537,NH,222
225,POTASH MTN (S PK),2760,43.9724,-71.3976,NH,300
226,CROYDON PEAK,2756,43.4819,-72.2195,NH,1732
227,MT PATIENCE,2750,44.7457,-71.2534,NH,520
228,BLACK MTN,2750,44.8344,-71.1763,NH,260
229,UNNAMED (SCOTT BOG PK),2749,45.218,-71.188,NH,218
230,MT OSCAR,2746,44.2505,-71.4817,NH,206
231,UNNAMED (DIAMOND RIDGE SE PK),2745,45.056,-71.0837,NH,555
232,UNNAMED (KINSMAN NOTCH PK),2740,44.045648,-71.781535,NH,220
233,SQUARE MTN,2735,44.5572,-71.3441,NH,405
234,SUNAPEE,2726,43.3138,-72.0743,NH,1476
235,IRON MTN,2726,44.1342,-71.2392,NH,946
236,ABENIKI MTN,2723,44.8778,-71.306,NH,453
237,MT METALAK,2721,44.7535,-71.2592,NH,251
238,PIERMONT MTN,2717,43.9592,-71.9951,NH,1547
239,CRYSTAL MTN (SS PK),2716,44.8916,-71.2,NH,326
240,PROSPECT MTN,2714,45.1577,-71.0734,NH,344
241,UNNAMED (GARFIELD FALLS E PK),2708,45.027,-71.0877,NH,458
242,SIGNAL MTN,2702,44.7611,-71.2273,NH,881
243,POTASH,2700,43.982,-71.3905,NH,240
244,UNNAMED (TRESTLE BROOK),2699,45.2,-71.2765,NH,509
245,DIXVILLE MTN (W PK),2699,44.853,-71.347,NH,269
246,BLACK SNOUT MTN,2689,43.7829,-71.3281,NH,219
247,ORANGE MTN,2684,43.6327,-71.9104,NH,254
248,TABLE MTN,2675,44.0317,-71.2625,NH,495
249,GRANTHAM MTN,2667,43.5002,-72.2035,NH,433
250,DEAD WATER RIDGE (S PK),2654,44.9463,-71.3422,NH,404
251,MT TUCKER (S PK),2650,44.911,-71.1682,NH,300
252,CATALOUCHEE,2647,43.6774,-71.9159,NH,337
253,COLE HILL,2645,44.1664,-71.8142,NH,1305
254,CASCADE MTN,2631,44.434,-71.151,NH,621
255,MT ISRAEL,2630,43.8455,-71.4719,NH,1200
256,MONTAGNE DES LIGNES,2630,45.254,-71.1976,NH,220
257,BEAMAN HILL,2630,45.1668,-71.1178,NH,240
258,BARTLETT HAYSTACK (N PK),2615,44.058201,-71.320839,NH,200
259,MUDGET MTN,2610,44.9682,-71.3767,NH,640
260,BLACK HILL,2602,43.8615,-71.9969,NH,492
261,UNNAMED (CHERRY APPLEBY),2598,44.312088,-71.470313,NH,196
262,TRIDENT,2590,44.4432,-71.1248,NH,360
263,MT SHAW,2585,44.1355,-71.0657,NH,455
264,HAYSTACK MTN,2582,45.0852,-71.1077,NH,192
265,UNNAMED (LOOMIS VALLEY PK),2570,45.085218,-71.107635,NH,202
266,HOWE (E PK),2567,44.347,-71.048,NH,239
267,DIAMOND RIDGE,2558,44.9542,-71.3006,NH,328
268,MT HAYES,2555,44.4156,-71.1601,NH,605
269,UNNAMED (BIG BROOK BOG PK),2548,45.1571,-71.245,NH,358
270,MT WEETAMOO,2548,43.851,-71.5731,NH,928
271,HALFMOON,2545,44.9297,-71.0615,NH,535
272,BLUE MTN,2540,43.9764,-71.2526,NH,240
273,MIDDLE SUGARLOAF,2539,44.2513,-71.5176,NH,279
274,UNNAMED (PESKEY BROOK PK),2535,44.995,-71.171,NH,290
275,UNNAMED (BLUE BROOK SHELTER PK),2532,44.281943,-71.068419,NH,252
276,HEDGEHOG MTN,2532,43.9743,-71.3671,NH,472
277,GOVES MTN,2529,43.2643,-72.0963,NH,315
278,BLACK MTN,2525,44.9155,-71.1155,NH,175
279,CEDAR MTN,2523,44.9847,-71.2789,NH,313
280,THE TWINS (N PK),2519,44.1283,-71.0684,NH,289
281,MILL MTN,2517,44.5962,-71.386,NH,847
282,NATHAN POND RIDGE,2510,44.9199,-71.2682,NH,420
283,MOAT MTN (SW PK),2507,44.024,-71.218,NH,211
284,MT HOPE,2505,44.1072,-71.3344,NH,445
285,LITTLE ATTITASH MTN,2504,44.0641,-71.2204,NH,254
286,KELSEY MTN (E PK),2497,44.8031,-71.2685,NH,382
287,UNNAMED (BEAVER POND PK),2494,45.0369,-71.2164,NH,344
288,UNNAMED (E HORN BROOK PK),2492,44.979,-71.0857,NH,442
289,ACTEON RIDGE,2489,43.904,-71.541,NH,270
290,WILLOUGHBY MTN (W PK),2488,43.843,-71.85,NH,184
291,JERICHO MTN,2487,44.467,-71.2223,NH,637
292,RICKERS KNOLL,2477,44.1113,-71.077,NH,207
293,STRATFORD MTN (S PK),2470,44.6785,-71.4667,NH,480
294,LOVEWELL MTN,2461,43.203509,-72.061085,NH,846
295,UNNAMED (LITTLE DIAMOND POND PK),2460,44.949,-71.321,NH,193
296,DEAD WATER RIDGE (N PK),2460,44.97,-71.32,NH,225
297,BALD MTN,2450,43.8005,-71.2658,NH,600
298,SUGAR MTN,2449,44.4461,-71.2361,NH,399
299,NATHAN POND RIDGE (SE PK),2449,44.909,-71.249,NH,242
300,RUSSELL MTN (E PK),2440,44.018,-71.644,NH,190
